매장명,도로명주소,매장유형,위도,경도
푸른약국,경상남도 거창군 거창읍 강남로1길 94-90,보건업,35.6809961,127.905595
농업회사법인 주식회사 엘비,경상남도 거창군 거창읍 아림로 30,음식점 및 주점업,35.6857795,127.9108981
대원중기,경상남도 거창군 거창읍 강변로 113,전문직별 공사업,35.6843827,127.9094145
꽃돼지삼형제 거창점,경상남도 거창군 거창읍 거함대로 3205,음식점 및 주점업,35.6807916,127.9126081
장 마 실,경상남도 거창군 남상면 지하동3길 74-5 장마실,음식점 및 주점업,35.6485835,127.9027282
최강영수학원,경상남도 거창군 거창읍 상동7길 68-1,교육 서비스업,35.6877076,127.9082371
원동별미갈비찜,경상남도 거창군 거창읍 서변원동길 14,음식점 및 주점업,35.7389587,127.9230484
케이클레스커피 거창점,경상남도 거창군 거창읍 강남로 266 (거창코아루에듀시티),음식점 및 주점업,35.6872339,127.9262853
태산설비공사,경상남도 거창군 거창읍 대평5길 10-3,전문직별 공사업,35.6842036,127.9179593
주식회사 백두산천지온천,경상남도 거창군 가조면 온천길 161,기타 개인 서비스업,35.698493,128.022912
오송조경 주식회사,경상남도 거창군 거창읍 중앙로 81 2증,전문직별 공사업,35.6854768,127.9076473
한잎만,경상남도 거창군 거창읍 중앙로 173,음식점 및 주점업,35.6882403,127.9171849
다이어트하우스,경상남도 거창군 거창읍 중앙로1길 1(고센시티 503호),기타 개인 서비스업,35.6874702,127.9131227
최혜란미용실,경상남도 거창군 거창읍 중앙로 156,기타 개인 서비스업,35.6874994,127.915279
웰메이드,경상남도 거창군 거창읍 거창대로 98,소매업; 자동차 제외,35.6902524,127.9150725
랜드로바 거창점,경상남도 거창군 거창읍 거열로8길 57 현대아파트 103동 507호,소매업; 자동차 제외,35.6892252,127.8990347
가림농원,"경상남도 거창군 거창읍 소만2길 62, 102동 1층 101호(거창소만토지구획정리사업지구 12BL 소만주공아파트)",소매업; 자동차 제외,35.6947344,127.9229163
외등축산태양광발전소,경상남도 거창군 남상면 외등2길 13-6,"전기, 가스, 증기 및 공기 조절 공급업",35.6165649,127.8866207
카페우주,"경상남도 거창군 거창읍 중앙로 140, 바동 8호 ,9호",음식점 및 주점업,35.6868324,127.9140345
플러스수학교습소,경상남도 거창군 거창읍 강남로 266 (거창코아루에듀시티),교육 서비스업,35.6872339,127.9262853
새서울치과의원,경상남도 거창군 거창읍 거창대로 99,보건업,35.6901457,127.9144614
성한중기,경상남도 거창군 거창읍 밤티재로 1310,자동차 및 부품 판매업,35.6721112,127.9319583
성한중기,경상남도 거창군 거창읍 밤티재로 1310,자동차 및 부품 판매업,35.6720447262,127.9316333622
거창 건설용품 거창 상림점,"경상남도 거창군 거창읍 공수들1길 53, 1층",소매업; 자동차 제외,35.6869333366,127.9007900721
애터미2호점,경상남도 거창군 거창읍 시장길 31,소매업; 자동차 제외,35.6860056,127.912458
거창피순대돼지국밥,경상남도 거창군 가조면 방촌길 16-10,음식점 및 주점업,35.7064389,128.016011
또바기분식,경상남도 거창군 거창읍 거열로5길 5 또바기분식,음식점 및 주점업,35.6889579,127.9060831
오티콘보청기,경상남도 거창군 거창읍 중앙로 171 오티콘 보청기,소매업; 자동차 제외,35.688168,127.917009
금강타일,"경상남도 거창군 거창읍 소만2길 10, 102동 101호(하나로2차 상가)",소매업; 자동차 제외,35.6927419025,127.9225641095
금강타일,"경상남도 거창군 거창읍 소만2길 10, 102동 101호(하나로2차 상가)",소매업; 자동차 제외,35.6927083,127.9229831
은진식당,경상남도 거창군 가조면 지산로 1475-8,음식점 및 주점업,35.7084091,128.015491
땅땅치킨 거창점,경상남도 거창군 거창읍 상동8길 3,음식점 및 주점업,35.6858266,127.9051238
위천수승대,경상남도 거창군 위천면 송계로 441,소매업; 자동차 제외,35.76116,127.8330223
거창맨홀,경상남도 거창군 거창읍 시장길 5 1층 맨홀,소매업; 자동차 제외,35.6856077,127.9111167
거창 러닝,경상남도 거창군 거창읍 거열로5길 26 3층 거창러닝,사업 지원 서비스업,35.6892477,127.9055011
천일장여관,경상남도 거창군 거창읍 시장3길 15,숙박업,35.6863513,127.9146548
일호산업,경상남도 거창군 거창읍 정장리 71-4,비금속 광물제품 제조업,35.6718337,127.9337993
킹 생활용품,경상남도 거창군 위천면 원학길 345,소매업; 자동차 제외,35.749684,127.8321229
현이네식당,경상남도 거창군 거창읍 시장길 78-1,음식점 및 주점업,35.686553,127.9151964
일천고지산양산삼,경상남도 거창군 가조면 온천길 150 일천고지산양산삼,소매업; 자동차 제외,35.6992534,128.023041
김영주 영어,"경상남도 거창군 거창읍 거열로4길 144-21, 101동 102호(대우아파트)",교육 서비스업,35.695331,127.9075142
거창장작,경상남도 거창군 마리면 빼재로 423 장작나라,소매업; 자동차 제외,35.7370291,127.8532775
영진식당,경상남도 거창군 웅양면 웅양로 2318,음식점 및 주점업,35.8724178,127.9216579
원학돌솥감자탕,경상남도 거창군 마리면 빼재로 415,음식점 및 주점업,35.7358685,127.8532614
한설과외마스터학원,경상남도 거창군 거창읍 상동2길 56,교육 서비스업,35.6879184,127.9077426
한설과외마스터학원,경상남도 거창군 거창읍 상동2길 56,교육 서비스업,35.6879174663,127.9077422172
엠(M)헤어아트,경상남도 거창군 거창읍 거열로 162 M헤어아트    동아반점옆,기타 개인 서비스업,35.6896985,127.9113019
베짱이 사랑방 영농조합법인,경상남도 거창군 고제면 고제로 740-6,숙박업,35.8714922,127.8795461
제주랑,경상남도 거창군 마리면 고창길 3,음식점 및 주점업,35.6863831,127.8735513
컴닥터119 거창점,경상남도 거창군 거창읍 하동1길 48 컴닥터119거창점,소매업; 자동차 제외,35.6889343,127.9118604
동아산업,"경상남도 거창군 거창읍 소만2길 10, 하나로2차 102동 101호",소매업; 자동차 제외,35.6927083,127.9229831
성문독서실,경상남도 거창군 거창읍 아림로 67 3-4층,"창작, 예술 및 여가관련 서비스업",35.688998,127.9091433
거창상림에어컨,경상남도 거창군 거창읍 중앙로 36-2,사업 지원 서비스업,35.6844738856,127.9027725752
거창산삼약초원,경상남도 거창군 거창읍 동동3길 7(전원아파트),소매업; 자동차 제외,35.6888179,127.9226875
이마트24 거창송림원룸점,경상남도 거창군 거창읍 송정9길 11-4,소매업; 자동차 제외,35.6813121,127.9070426
주얼리 순,경상남도 거창군 거창읍 중앙로 163-4,소매업; 자동차 제외,35.6879883,127.9162765
아리솔펜션,경상남도 거창군 북상면 덕유월성로 1342-21,숙박업,35.7622141,127.7336574
송정약국,경상남도 거창군 거창읍 송정1길 24-6,소매업; 자동차 제외,35.6815656,127.8985043
성이익스프레스,경상남도 거창군 가조면 사양동길 93-4,육상 운송 및 파이프라인 운송업,35.7097423151,127.9922531906
성이익스프레스,경상남도 거창군 가조면 사양동길 93-4,육상 운송 및 파이프라인 운송업,35.7098088996,127.9920668365
씨유 거창아림점,"경상남도 거창군 거창읍 거열로7길 43, 1층 102호(상동주공아파트상가)",소매업; 자동차 제외,35.6900759,127.901861
황금미용실,경상남도 거창군 거창읍 시장길 95(다호),음식점 및 주점업,35.6871810766,127.9156909808
경서교차로,경상남도 거창군 거창읍 강변로 191,소매업; 자동차 제외,35.6868306,127.9175286
더하우스,경상남도 거창군 거창읍 거열로4길 211,"기타 전문, 과학 및 기술 서비스업",35.6973716564,127.9041927026
진명약국,경상남도 거창군 거창읍 중앙로 158-1,소매업; 자동차 제외,35.6874212,127.9154501
부어치킨,경상남도 거창군 거창읍 강남로 266(거창코아루에듀시티),음식점 및 주점업,35.6872339,127.9262853
컴포즈커피거창점,경상남도 거창군 거창읍 아림로 24,음식점 및 주점업,35.6852739,127.9110884
알레르망 거창점,경상남도 거창군 거창읍 중앙로 153,소매업; 자동차 제외,35.687647,127.9149197
금손언니네,경상남도 거창군 거창읍 거열로1길 33,소매업; 자동차 제외,35.6920892,127.914021
드엘르,경상남도 거창군 거창읍 아림로 53,기타 개인 서비스업,35.6878376,127.9096972
한점,경상남도 거창군 거창읍 중앙로 140,음식점 및 주점업,35.6868324,127.9140345
기쁨약국,경상남도 거창군 거창읍 거창대로 65,소매업; 자동차 제외,35.687316,127.9156579
고야디자인,경상남도 거창군 거창읍 장팔3길 103-62 컨테이너,"기타 전문, 과학 및 기술 서비스업",35.6645531,127.8946662
고야디자인,경상남도 거창군 거창읍 장팔3길 103-62 컨테이너,"기타 전문, 과학 및 기술 서비스업",35.6645407536,127.8946932347
빼재 솔리데오,경상남도 거창군 고제면 빼재로 1765 빼재솔리데오,숙박업,35.8416228,127.8438813
두끼 거창점,"경상남도 거창군 거창읍 중앙로 115-2, 2층",음식점 및 주점업,35.6866433,127.9110795
으뜸부분정비,경상남도 거창군 거창읍 거함대로5길 23 으뜸카센터,개인 및 소비용품 수리업,35.6824611,127.919424
풍류정 민박,경상남도 거창군 가북면 가북로 473-54,숙박업,35.7542025,127.9857436
탑선골사과원,"경상남도 거창군 거창읍 강남로1길 98-10, 2층",소매업; 자동차 제외,35.6818084,127.9062269
미니블 미니어처,경상남도 거창군 거창읍 죽전길 17,소매업; 자동차 제외,35.6905469,127.9074401
유(U) 모텔,경상남도 거창군 가조면 온천길 27-23 유모텔,숙박업,35.6970755,128.0230816
보성선식,경상남도 거창군 거창읍 시장길 94 보성선식,식료품 제조업,35.6869223,127.9158244
이교추어탕,경상남도 거창군 거창읍 거창대로 31-1,음식점 및 주점업,35.6844588617,127.9170298759
뷰무인텔,경상남도 거창군 가조면 온천길 30-45,숙박업,35.696082,128.0239944
웰이스턴영어서부경남본부,경상남도 거창군 거창읍 상동길 50 3층,도매 및 상품 중개업,35.6883269,127.9044251
단아헤어,"경상남도 거창군 거창읍 강변로 137-2, 3호",기타 개인 서비스업,35.6848658,127.9121383
원학골 우렁이,경상남도 거창군 거창읍 공수들6길 19 201호,어업,35.6870477,127.9034343
킴드,"경상남도 거창군 거창읍 상동길 50-6, 3층","건축 기술, 엔지니어링 및 기타 과학기술 서비스업",35.6880812,127.9045882
이지헤어,경상남도 거창군 거창읍 거창대로 62,기타 개인 서비스업,35.6871937,127.9163125
숙명 음악 학원,경상남도 거창군 거창읍 거열로5길 36 1층,교육 서비스업,35.6896682,127.9052784
은하수 산장,경상남도 거창군 웅양면 왕암길 452,숙박업,35.8804126,127.9025438
다온카페,"경상남도 거창군 가조면 의상봉길 45-21, 1층",음식점 및 주점업,35.7087633,128.0176342
수니카페,경상남도 거창군 위천면 장터길 51-2,음식점 및 주점업,35.7505967,127.8322689
수승대 임정은 가든,경상남도 거창군 위천면 송계로 363,음식점 및 주점업,35.7552498,127.8328151
Ok미용상사,경상남도 거창군 거창읍 중앙로 108-1,기타 개인 서비스업,35.686073,127.9102941
명광사,경상남도 거창군 거창읍 공수들4길 33,기타 개인 서비스업,35.6876324,127.9025427
개봉식당,경상남도 거창군 거창읍 개봉길 14,음식점 및 주점업,35.6930827,127.9174453
경옥미니슈퍼,경상남도 거창군 웅양면 웅양로 1413 경옥미니슈퍼,소매업; 자동차 제외,35.8038006,127.9176512
경옥미니슈퍼,경상남도 거창군 웅양면 웅양로 1413,소매업; 자동차 제외,35.8037748734,127.9176752197
본모텔&본사우나,경상남도 거창군 가조면 가조가야로 1125 사우나,숙박업,35.7105251454,128.018114385
인터넷창업 biz,경상남도 거창군 거창읍 거창대로 8,"컴퓨터 프로그래밍, 시스템 통합 및 관리업",35.6825882405,127.9184431347
인터넷창업 biz,경상남도 거창군 거창읍 거창대로 8,"컴퓨터 프로그래밍, 시스템 통합 및 관리업",35.6825887,127.9184423
꼬레아이,경상남도 거창군 거창읍 강변로9길 10 사랑채204호,음식점 및 주점업,35.6871626,127.9186964
우진산업,경상남도 거창군 가조면 석강3길 84,기타 제품 제조업,35.6842524,128.026042
녹당수학교습소,경상남도 거창군 거창읍 상동7길 51-15,교육 서비스업,35.6882621,127.9070385
아림꽃집,"경상남도 거창군 거창읍 강변로9길 41, 105호(신흥1차상가)",소매업; 자동차 제외,35.6885346,127.917325
형제산업,경상남도 거창군 주상면 원성기2길 34,임업,35.7777424,127.9253603
푸른창블라인드,경상남도 거창군 거창읍 강변로9길 41(신흥아파트),소매업; 자동차 제외,35.6885346,127.917325
힐링(Healing)당구장,경상남도 거창군 거창읍 거열로 84,스포츠 및 오락관련 서비스업,35.6881401,127.9030298
옥봉이국수,경상남도 거창군 거창읍 시장길 81-13,음식점 및 주점업,35.6872461,127.9148344
보경축산컨설팅,경상남도 거창군 거창읍 소만1길 15-19,소매업; 자동차 제외,35.6925955,127.920063
호식이두마리치킨거창점,경상남도 거창군 거창읍 강양5길 45,음식점 및 주점업,35.6893504,127.9177056
한잔해,경상남도 거창군 거창읍 중앙로 108,음식점 및 주점업,35.6860142,127.9102083
해킹짱쭈꾸미,경상남도 거창군 거창읍 거열로 232,음식점 및 주점업,35.6925829,127.918195
서민정피아노개인과외,경상남도 거창군 거창읍 장팔2길 44-13,교육 서비스업,35.6696857,127.9019232
제이수아(Jsu_a),경상남도 거창군 거창읍 거열로1길 78-20 102호 제이수아,소매업; 자동차 제외,35.6944034,127.9126885
미녀봉식육식당,경상남도 거창군 가조면 가조가야로 1131,음식점 및 주점업,35.7105376,128.0187033
다소니공방,경상남도 거창군 거창읍 하동1길 20,교육 서비스업,35.6876701,127.9120691
슈아로마,"경상남도 거창군 거창읍 시장길 8, 2층(정우당)",소매업; 자동차 제외,35.6854691,127.9112335
슈아로마,"경상남도 거창군 거창읍 시장길 8, 2층(정우당)",소매업; 자동차 제외,35.6854662744,127.9112362455
더타이,"경상남도 거창군 거창읍 아림로 16, 2층",소매업; 자동차 제외,35.684823,127.9113503
개인 과외,"경상남도 거창군 거창읍 거열로6길 56-12, 101호",교육 서비스업,35.6897466,127.9060656
반올림피자샵경남거창점,"경상남도 거창군 거창읍 중앙로 113, 1층",음식점 및 주점업,35.6865274,127.9107219
십오야왕족발보쌈,경상남도 거창군 거창읍 거열로 203 십오야왕족발보쌈,음식점 및 주점업,35.691176,127.9157556
카이스PC방1호점,경상남도 거창군 거창읍 죽전1길 13 카이스pc방,스포츠 및 오락관련 서비스업,35.6898488502,127.9087571967
신전떡볶이,경상남도 거창군 거창읍 아림로1길 7,음식점 및 주점업,35.6852958,127.9105743
"여기,스카 스터디카페",경상남도 거창군 거창읍 아림로2길 33,기타 개인 서비스업,35.6884018,127.9115505
삼성재활용,경상남도 거창군 거창읍 중산길 14,소매업; 자동차 제외,35.6726663283,127.9102502717
거창멸치국수,경상남도 거창군 마리면 송계로 27,음식점 및 주점업,35.7321246,127.850313
합천상회,경상남도 거창군 거창읍 중앙로 120,소매업; 자동차 제외,35.6864778,127.9115544
월성횟집,경상남도 거창군 북상면 깊은골길 23,음식점 및 주점업,35.7653364,127.75803
ES MEDIA(ES 미디어),경상남도 거창군 거창읍 강변로 259 2층,"기타 전문, 과학 및 기술 서비스업",35.6890761,127.9242915
조선갈비탕,경상남도 거창군 거창읍 공수들3길 30 1층 조선갈비탕,음식점 및 주점업,35.6869794,127.9024699
조선갈비탕,경상남도 거창군 거창읍 공수들3길 30,음식점 및 주점업,35.6869794552,127.9024696166
아이민(I mean) 놀이터,경상남도 거창군 거창읍 거열로1길 86 GnG4차상가 3층,교육 서비스업,35.6939372,127.9122408
NUPC거창점,"경상남도 거창군 거창읍 강변로 117, 2층",스포츠 및 오락관련 서비스업,35.6844400754,127.9098969531
페니블루,경상남도 거창군 거창읍 중앙로1길 20-3,소매업; 자동차 제외,35.687779,127.914135
척바른신경외과의원,경상남도 거창군 거창읍 거열로 116,보건업,35.6886058,127.9065094
제일대리운전,경상남도 거창군 거창읍 동동1길 21,사업 지원 서비스업,35.688693,127.9217023
청우건설,경상남도 거창군 남상면 수남로 1779 무촌상회,종합 건설업,35.6400556,127.9049506
열창노래연습장,경상남도 거창군 거창읍 중앙로 169,스포츠 및 오락관련 서비스업,35.6880689,127.9166269
청아,경상남도 거창군 거창읍 대평3길 74 청아,음식점 및 주점업,35.6860239,127.9207182
태광태양광발전소,경상남도 거창군 남상면 웃골길 215,"전기, 가스, 증기 및 공기 조절 공급업",35.6598833577,127.9209706306
준희건업,경상남도 거창군 거창읍 밤티재로 1273-13,전문직별 공사업,35.6687504,127.9303575
사상체질건강원,경상남도 거창군 고제면 빼재로 1278-5,소매업; 자동차 제외,35.8080382,127.8739038
소나무공부방 수학교습소,경상남도 거창군 거창읍 창동로 140,교육 서비스업,35.6895896,127.9201083
농업회사법인 해플스팜사이더리 주식회사,경상남도 거창군 거창읍 갈지2길 192-8,음식점 및 주점업,35.7152907,127.8993619
세븐일레븐 거창대동중앙점,경상남도 거창군 거창읍 중앙로  158-1,소매업; 자동차 제외,35.6874212,127.9154501
라임오렌지,경상남도 거창군 거창읍 정장길 3,음식점 및 주점업,35.6780709,127.9116279
대동막창,경상남도 거창군 거창읍 거창대로2길 28,음식점 및 주점업,35.6878672,127.9173283
못난이소주방,경상남도 거창군 거창읍 시장1길 26,음식점 및 주점업,35.6860164,127.9121649
기장산곰장어,경상남도 거창군 거창읍 강변로9길 61,음식점 및 주점업,35.6895225,127.9173845
거창파닭,경상남도 거창군 거창읍 아림로1길 6,음식점 및 주점업,35.6854787,127.9105933
원더풀꽈배기 거창점,경상남도 거창군 거창읍 중앙로 111,음식점 및 주점업,35.686506,127.9106434
금호간받이구이,경상남도 거창군 거창읍 수남로 2266,음식점 및 주점업,35.6811342531,127.912452621
금호간받이구이,경상남도 거창군 거창읍 수남로 2266,음식점 및 주점업,35.6811342,127.9124528
대박왕만두왕찐빵,경상남도 거창군 거창읍 중앙로 155,음식점 및 주점업,35.6877151,127.9152333
깡헤어,경상남도 거창군 거창읍 공수들1길 45,기타 개인 서비스업,35.6865989054,127.9005740917
윤제통마취통증의학과의원,경상남도 거창군 거창읍 거창대로 53-1,보건업,35.6863967,127.916103
꽃시내,경상남도 거창군 위천면 금원산길 139,음식점 및 주점업,35.7444338,127.8192432
고려정형외과,경상남도 거창군 거창읍 강남로 194,보건업,35.6850545,127.9184098
옥유탕,경상남도 거창군 거창읍 강남로 150 옥유탕,기타 개인 서비스업,35.6836572,127.9136977
옥유탕,경상남도 거창군 거창읍 강남로 150 옥유탕,기타 개인 서비스업,35.6837611903,127.9137207529
맛고을,경상남도 거창군 가조면 지산로 1465,음식점 및 주점업,35.707407,128.0154314
중앙메디컬병원,경상남도 거창군 거창읍 거창대로1길 7-2,보건업,35.6873041,127.9167346
대성자동차정비공업사,경상남도 거창군 거창읍 밤티재로 1320,개인 및 소비용품 수리업,35.672966,127.9323831
중앙치과의원,경상남도 거창군 거창읍 거창대로1길 7-2,보건업,35.6873041,127.9167346
나에게휴식,경상남도 거창군 거창읍 교촌길 109-8,소매업; 자동차 제외,35.6926084,127.9045659
나에게휴식,경상남도 거창군 거창읍 교촌길 109-8,소매업; 자동차 제외,35.6925742196,127.9045243914
김치과의원,경상남도 거창군 거창읍 거창대로 60-1,보건업,35.6869879,127.9163772
천하무적 열쇠,경상남도 거창군 거창읍 죽전5길 54,금속 가공제품 제조업; 기계 및 가구 제외,35.692613416,127.9122005533
미미떡방앗간,경상남도 거창군 가조면 가조가야로 1116,식료품 제조업,35.7101961965,128.0171082658
미미떡방앗간,경상남도 거창군 가조면 가조가야로 1116,식료품 제조업,35.7102080575,128.0170952908
헤어스토리,경상남도 거창군 거창읍 아림로2길 27,기타 개인 서비스업,35.6883276,127.9112318
새봄한의원,경상남도 거창군 가조면 지산로 1462,보건업,35.7075397,128.0166726
금광중기,경상남도 거창군 거창읍 거열로 204,전문직별 공사업,35.6909058,127.9159294
들풀잔디조경,"경상남도 거창군 거창읍 죽전길 94, 110동 505호(주공아파트)",전문직별 공사업,35.6901409,127.911443
로끼오치킨,경상남도 거창군 거창읍 중앙로 140,음식점 및 주점업,35.6868324,127.9140345
대방운수5096,경상남도 거창군 가조면 가조가야로 1073,육상 운송 및 파이프라인 운송업,35.7099336,128.012392
거창종합중기,경상남도 거창군 거창읍 창동로 171,전문직별 공사업,35.6925087,127.9196391
고제반점,경상남도 거창군 고제면 고제로 66,음식점 및 주점업,35.8145387,127.8723559
더나인뷰티,경상남도 거창군 거창읍 거열로6길 68-4,소매업; 자동차 제외,35.6903923,127.9061297
명동오리,경상남도 거창군 거창읍 대평3길 16,음식점 및 주점업,35.6834757,127.9216109
촌애,경상남도 거창군 마리면 빼재로 127,음식점 및 주점업,35.710978,127.8539315
대경마트,경상남도 거창군 거창읍 거열로7길 25,소매업; 자동차 제외,35.6893798,127.9020328
콤마,경상남도 거창군 거창읍 송정1길 16,음식점 및 주점업,35.6817301721,127.8989375463
콤마,경상남도 거창군 거창읍 송정1길 16,음식점 및 주점업,35.6817601,127.8989302
개인택시(신석환),"경상남도 거창군 거창읍 강남로 240-15, 1005호(남광빌라)",육상 운송 및 파이프라인 운송업,35.686538,127.9233726
윌로펌프 서비스,경상남도 거창군 거창읍 창동로 98,도매 및 상품 중개업,35.6860499,127.9216502
영남건설기계,경상남도 거창군 거창읍 강변로 309,전문직별 공사업,35.6928648,127.9245275
협화비료원예정보사,경상남도 거창군 거창읍 강변로 309,도매 및 상품 중개업,35.6928648,127.9245275
인쇄나라(상림),"경상남도 거창군 거창읍 동동6길 99, 101동 1104호(베어스타운)",전문 서비스업,35.690836891,127.9247202553
인쇄나라(상림),"경상남도 거창군 거창읍 동동6길 99, 101동 1104호(베어스타운)",전문 서비스업,35.6906965531,127.9247519495
아진중기,경상남도 거창군 거창읍 거창대로 24(3층),전문직별 공사업,35.683911,127.9177155
소영태양광발전소,경상남도 거창군 거창읍 중앙로 108,"전기, 가스, 증기 및 공기 조절 공급업",35.6860142708,127.9102080131
거창태양광발전소,경상남도 거창군 거창읍 대평3길 74,"전기, 가스, 증기 및 공기 조절 공급업",35.6860239,127.9207182
온동네 정보시스템,경상남도 거창군 거창읍 동동5길 26 온동네정보시스템,도매 및 상품 중개업,35.6916525,127.9214238
365착한가격,경상남도 거창군 거창읍 시장3길 4,소매업; 자동차 제외,35.6858202,127.9151428
진화토목설계,"경상남도 거창군 거창읍 거창대로 100, 5층 501호(선보프라자)","건축 기술, 엔지니어링 및 기타 과학기술 서비스업",35.6903679,127.9151
스시동원,경상남도 거창군 거창읍 하동3길 1,음식점 및 주점업,35.688343,127.9141004
우림토목설계사무소,"경상남도 거창군 거창읍 강변로9길 101, 2층","건축 기술, 엔지니어링 및 기타 과학기술 서비스업",35.6911476,127.9166438
아이센스피시방거창대동점,경상남도 거창군 거창읍 거창대로 92,스포츠 및 오락관련 서비스업,35.6897775,127.9154083
영남건설기게,경상남도 거창군 거창읍 강변로 309 영남건설기계,전문직별 공사업,35.6928648,127.9245275
거창미르치과의원,경상남도 거창군 거창읍 거창대로 52,보건업,35.6863997,127.9167604
개별화물,경상남도 거창군 거창읍 아림로3길 35-3,육상 운송 및 파이프라인 운송업,35.6892816,127.9110906
남도식당,경상남도 거창군 가조면 마상4길 71,음식점 및 주점업,35.7090982,128.0146497
열쇠나라,경상남도 거창군 거창읍 거열로 155-1,소매업; 자동차 제외,35.6898434084,127.9108138944
열쇠나라,경상남도 거창군 거창읍 거열로 155-1,소매업; 자동차 제외,35.6898432,127.9108148
쌀통닭 거창점,경상남도 거창군 거창읍 송정1길 16,음식점 및 주점업,35.6817601,127.8989302
에이비(AB)모터스,경상남도 거창군 거창읍 거함대로 3177,개인 및 소비용품 수리업,35.6803939,127.9094052
족발신선생 거창점,경상남도 거창군 거창읍 공수들4길 2,음식점 및 주점업,35.6862772,127.9030116
챠핑챠핑헤어,경상남도 거창군 거창읍 중앙로1길 36,기타 개인 서비스업,35.6882433,127.9146075
희망꽃집,경상남도 거창군 거창읍 하동1길 41,소매업; 자동차 제외,35.6885881,127.91166
현화헤어샵,경상남도 거창군 거창읍 중앙로 120,기타 개인 서비스업,35.686477779,127.9115541547
현화헤어샵,경상남도 거창군 거창읍 중앙로 120 현화헤어샵,기타 개인 서비스업,35.686477779,127.9115541547
BBQ 경남거창점,경상남도 거창군 거창읍 거열로 148,음식점 및 주점업,35.6893514,127.9100459
이화영어,경상남도 거창군 거창읍 거열로5길 16-3,교육 서비스업,35.689205,127.9056829
늑대와여우컴퓨터거창점,경상남도 거창군 거창읍 거열로 156,소매업; 자동차 제외,35.6895456549,127.910737559
리틀도쿄,경상남도 거창군 거창읍 시장길 22,음식점 및 주점업,35.6856804,127.9120283
샛별매점,경상남도 거창군 거창읍 죽전4길 68-3,소매업; 자동차 제외,35.6932715,127.910547
둥디농장,경상남도 거창군 가조면 신천길 15-3 1층,사업 지원 서비스업,35.7236960599,127.9995975031
수복정,경상남도 거창군 거창읍 소만5길 81-10,음식점 및 주점업,35.6929909,127.9242771
장팔리청과,경상남도 거창군 거창읍 중앙로 140 하동2호,소매업; 자동차 제외,35.6868324,127.9140345
물들이다,경상남도 거창군 거창읍 아림로2길 94-7,기타 개인 서비스업,35.689120713,127.9147452968
거창독서실,경상남도 거창군 거창읍 창남4길 17,교육 서비스업,35.6837785,127.9141045
펫클럽샵,경상남도 거창군 거창읍 강남로 78 펫클럽,소매업; 자동차 제외,35.6825758269,127.9059925358
셀프 빨래방,경상남도 거창군 거창읍 거열로5길 16-3 셀프빨래방,기타 개인 서비스업,35.689205,127.9056829
퀸유럽풍십자수,경상남도 거창군 거창읍 하동1길 44(1층),소매업; 자동차 제외,35.6887518,127.9118896
롤리타,"경상남도 거창군 거창읍 거열로4길 82, B동 309호(궁전아파트)",교육 서비스업,35.692196804,127.9076184329
롤리타,"경상남도 거창군 거창읍 거열로4길 82, B동 309호(궁전아파트)",교육 서비스업,35.6921977,127.9081385
푸줏간,경상남도 거창군 거창읍 소만2길 53,소매업; 자동차 제외,35.6946292,127.9219537
차이나,경상남도 거창군 거창읍 동동7길 18-22,음식점 및 주점업,35.6879713,127.9209492
뉴포인트낚시,경상남도 거창군 거창읍 강남로 200,기타 제품 제조업,35.6855385,127.9189841
클레오,경상남도 거창군 거창읍 아림로 22 클레오헤어,기타 개인 서비스업,35.6851790179,127.9111703074
클레오,경상남도 거창군 거창읍 아림로 22,기타 개인 서비스업,35.6851790179,127.9111703074
마임거창지사,경상남도 거창군 거창읍 거창대로 82(2층),소매업; 자동차 제외,35.6888135979,127.9156542927
참나라가든,경상남도 거창군 마리면 영승1길 72-50,음식점 및 주점업,35.7195414,127.8582031
윤&담,경상남도 거창군 가조면 가조가야로 1110-29,음식점 및 주점업,35.70978,128.0161566
하늘비단 영농조합법인,경상남도 거창군 가조면 도리1길 8 하늘비단 영농조합법인,음식점 및 주점업,35.7044199,128.0468024
하늘비단 영농조합법인,경상남도 거창군 가조면 도리1길 8,음식점 및 주점업,35.7044198643,128.0468020998
더 올레,경상남도 거창군 가조면 마상4길 90,음식점 및 주점업,35.7098626,128.0147381
보약장어왕메기,경상남도 거창군 가조면 월포1길 141-269,음식점 및 주점업,35.724147,128.0235175
뷰티온,경상남도 거창군 거창읍 강변로1길 13-9,기타 개인 서비스업,35.684238,127.8988041
송천주유소,경상남도 거창군 주상면 웅양로 1124,소매업; 자동차 제외,35.7792672,127.9164184
거창또봉이통닭,경상남도 거창군 거창읍 강변로9길 28,음식점 및 주점업,35.6880448,127.9181629
뷰티현,경상남도 거창군 거창읍 아림로3길 39,기타 개인 서비스업,35.6892808,127.9115439
어업회사법인 주식회사 에버그린수산,경상남도 거창군 가조면 월포1길 141-201,어업,35.7220782,128.0242009
막걸리쌀롱,경상남도 거창군 거창읍 동동3길 23,음식점 및 주점업,35.6895644,127.9229384
의료법인 아림의료재단,경상남도 거창군 거창읍 송정1길 24-13,보건업,35.6812519,127.8977495
페이브(FAVE),경상남도 거창군 거창읍 수남로 2220,기타 개인 서비스업,35.6771444,127.9115126
티아라스킨케어,경상남도 거창군 거창읍 강변로9길 7,기타 개인 서비스업,35.6871447,127.9182128
대구가든,경상남도 거창군 북상면 병곡길 447-11,음식점 및 주점업,35.8091133,127.7756274
가조선한의원,경상남도 거창군 가조면 가조가야로 1107,보건업,35.7104842662,128.0160972881
벌나무 약초,경상남도 거창군 거창읍 개화1길 81,도매 및 상품 중개업,35.7001286,127.9064229
장곰탕,경상남도 거창군 거창읍 중앙로1길 77,음식점 및 주점업,35.689842,127.9159041
더반할듯,경상남도 거창군 거창읍 죽전길 24,기타 개인 서비스업,35.6903071948,127.9076272818
더반할듯,경상남도 거창군 거창읍 죽전길 24,기타 개인 서비스업,35.6903072,127.9076252
시장풍경,경상남도 거창군 거창읍 중앙로 140,음식점 및 주점업,35.6868324,127.9140345
대동상회,경상남도 거창군 거창읍 시장길 83,소매업; 자동차 제외,35.6868464,127.91509
굽는치킨거창점,경상남도 거창군 거창읍 거창대로2길 32,음식점 및 주점업,35.6879996,127.9175735
북부주유소,경상남도 거창군 거창읍 거열로 198,소매업; 자동차 제외,35.6907581,127.9153767
７．３카부분정비,경상남도 거창군 거창읍 강남로 118-1 73카부분정비,개인 및 소비용품 수리업,35.682923891,127.9102692343
처갓집양념치킨웅양점,"경상남도 거창군 웅양면 웅양로 1428, 1층",음식점 및 주점업,35.8047924,127.9183563
한국타이어경상대리점,경상남도 거창군 거창읍 창동로 185,자동차 및 부품 판매업,35.6937826,127.9192914
뚱보집,경상남도 거창군 거창읍 공수들6길 4,음식점 및 주점업,35.6864141,127.9038794
등촌샤브칼국수(거창점),경상남도 거창군 거창읍 공수들1길 24-1,음식점 및 주점업,35.6856624,127.9004996
즐거운인생,경상남도 거창군 거창읍 공수들1길 24-1,음식점 및 주점업,35.6856624,127.9004996
김현철한의원,경상남도 거창군 거창읍 거창대로 60-1,보건업,35.6869879,127.9163772
애나(anna),경상남도 거창군 거창읍 시장2길 33,소매업; 자동차 제외,35.6865647,127.9129376
성화상회,경상남도 거창군 거창읍 대평4길 25-11,소매업; 자동차 제외,35.6853815,127.9187402
소리공간피아노학원,경상남도 거창군 거창읍 거열로6길 56-15,교육 서비스업,35.6900697,127.9059565
한빛나노의료기,경상남도 거창군 거창읍 강변로 157,소매업; 자동차 제외,35.685603,127.9142084
동부공구상사,경상남도 거창군 거창읍 중앙로 202,소매업; 자동차 제외,35.6886394,127.9200825
앵두청과,경상남도 거창군 거창읍 시장길 80,소매업; 자동차 제외,35.6866415,127.9150803
우리미용실,경상남도 거창군 거창읍 죽전4길 7,기타 개인 서비스업,35.6907082,127.9116455
수엔미용실,경상남도 거창군 거창읍 하동1길 14,기타 개인 서비스업,35.687306079,127.9121058777
심야신닭발,경상남도 거창군 거창읍 상동7길 47-20,음식점 및 주점업,35.6884169,127.9069448
반하리뷰티,경상남도 거창군 거창읍 아림로 62,소매업; 자동차 제외,35.6885888,127.9096561
거창약국,경상남도 거창군 거창읍 강남로 204,소매업; 자동차 제외,35.6856616362,127.9193137605
자담치킨거창점,경상남도 거창군 거창읍 중앙로 81,음식점 및 주점업,35.6854768,127.9076473
채연면옥한우정육식당,경상남도 거창군 가조면 온천길 156,음식점 및 주점업,35.6992164,128.0227404
제일치과의원,경상남도 거창군 거창읍 거창대로 65,보건업,35.687316,127.9156579
퍼스트수학,경상남도 거창군 거창읍 상동길 42-1,교육 서비스업,35.6876001325,127.9045242965
캐리어에어컨서비스거창센터,경상남도 거창군 거창읍 거열로 208,소매업; 자동차 제외,35.6910604,127.916307
센스당구클럽,경상남도 거창군 거창읍 거창대로 92,스포츠 및 오락관련 서비스업,35.6897775,127.9154083
슈슈에스테틱,경상남도 거창군 거창읍 공수들1길 37,기타 개인 서비스업,35.6862723,127.9003404
슈슈에스테틱,경상남도 거창군 거창읍 공수들1길 37,기타 개인 서비스업,35.6862722757,127.9003401493
소풍,경상남도 거창군 거창읍 교촌길 100-65,음식점 및 주점업,35.6929591,127.9060415
리틀버터,경상남도 거창군 거창읍 강변로 53,음식점 및 주점업,35.6838392,127.9029324
가조 가마솥 육개장 순두부,경상남도 거창군 가조면 가조가야로 1129,음식점 및 주점업,35.7106064,128.0184637
부산철망,경상남도 거창군 거창읍 창동로 145,소매업; 자동차 제외,35.6898702399,127.9195290891
부산철망,경상남도 거창군 거창읍 창동로 145 부산철망,소매업; 자동차 제외,35.6898702,127.9195291
부림미용실,경상남도 거창군 거창읍 거열로4길 32,기타 개인 서비스업,35.6903470854,127.9068989267
명동오리,경상남도 거창군 가조면 가조가야로 1129,음식점 및 주점업,35.7106064,128.0184637
거창꽃마트,경상남도 거창군 거창읍 강변로9길 67,소매업; 자동차 제외,35.6896956,127.9173417
청사초롱,"경상남도 거창군 거창읍 강남로1길 188, 1층",음식점 및 주점업,35.6828247,127.9109802
닥치고 떡볶이,경상남도 거창군 거창읍 공수들1길 52,음식점 및 주점업,35.6866639,127.9009523
광보한의원,경상남도 거창군 거창읍 중앙로 157,보건업,35.6878573,127.9153148
무릉식당,경상남도 거창군 거창읍 국농소2길 10,음식점 및 주점업,35.6734636,127.936258
삼미식당,경상남도 거창군 거창읍 거창대로2길 16,음식점 및 주점업,35.6874992,127.9167052
처갓집양념치킨,경상남도 거창군 신원면 신차로 3062,음식점 및 주점업,35.5674001,127.9258686
육삼순두부,경상남도 거창군 거창읍 중앙로 170,음식점 및 주점업,35.6878693,127.9168684
메이플영어,경상남도 거창군 거창읍 공수들8길 83-1,교육 서비스업,35.6858035,127.904858
인베이스터디카페 거창점,경상남도 거창군 거창읍 거열로 122,"창작, 예술 및 여가관련 서비스업",35.6887012,127.9070173
꽃두레,경상남도 거창군 마리면 거안로 996,음식점 및 주점업,35.6910422,127.86728
서민돼지갈비살,경상남도 거창군 거창읍 대평5길 72,음식점 및 주점업,35.6850244,127.9212202
광민농산,경상남도 거창군 거창읍 거열로2길 8,소매업; 자동차 제외,35.6911977,127.9154284
포인트수학,경상남도 거창군 거창읍 상동7길 23-1,교육 서비스업,35.6874515,127.9055697
옹달샘,경상남도 거창군 거창읍 공수들1길 24-25,음식점 및 주점업,35.6857584,127.9016391
(주)마시라,경상남도 거창군 거창읍 거열로1길 86(지엔지 4차),음식점 및 주점업,35.6939372,127.9122408
안동국시,경상남도 거창군 거창읍 중앙로 155,음식점 및 주점업,35.6877151,127.9152333
포유피씨(4UPC),"경상남도 거창군 거창읍 아림로 23, 303호(아림캐슬)",스포츠 및 오락관련 서비스업,35.6851715472,127.9105734772
빵그레,경상남도 거창군 거창읍 거열로2길 8,음식점 및 주점업,35.6911977,127.9154284
본가추어탕,경상남도 거창군 거창읍 창동로 120-1,음식점 및 주점업,35.6879868,127.9207956
썬뷰티(SUNBEAUTY),경상남도 거창군 거창읍 아림로 29,기타 개인 서비스업,35.6856547,127.910616
노루표페인트,경상남도 거창군 거창읍 거창대로2길 34,소매업; 자동차 제외,35.6880525,127.9176518
찜닭앤물가자미,경상남도 거창군 거창읍 거창대로 99,음식점 및 주점업,35.6901457,127.9144614
족발역,경상남도 거창군 거창읍 거열로 182,음식점 및 주점업,35.6902681,127.9134628
옹골진슈퍼,경상남도 거창군 거창읍 강남로 14,소매업; 자동차 제외,35.6822283,127.8988832
삼양전기,경상남도 거창군 거창읍 강변로 161-1,전기장비 제조업,35.6857319,127.9146077
미용실:라움,경상남도 거창군 거창읍 새동네2길 37,기타 개인 서비스업,35.6880198,127.9280406
스테이990,경상남도 거창군 거창읍 소만5길 45,음식점 및 주점업,35.6924492,127.9222429
하니팜,경상남도 거창군 거창읍 정장길 115-23,농업,35.6742926,127.9157852
덕유수산,경상남도 거창군 마리면 계동길 91 옆  덕유수산,음식점 및 주점업,35.7017894,127.8593337
채움수학학원,경상남도 거창군 거창읍 거열로6길 56-7,교육 서비스업,35.6899722255,127.9058792132
채움수학학원,경상남도 거창군 거창읍 거열로6길 56-7,교육 서비스업,35.6899722,127.9058795
핑(PING),경상남도 거창군 거창읍 아림로 32-1,소매업; 자동차 제외,35.6860798,127.9108123
걸작떡볶이치킨 거창점,경상남도 거창군 거창읍 아림로 67 (상림리),음식점 및 주점업,35.688998,127.9091433
동물원화실미술학원,경상남도 거창군 거창읍 거열로4길 25,교육 서비스업,35.6899501,127.9068683
동물원화실미술학원,경상남도 거창군 거창읍 거열로4길 25,교육 서비스업,35.6899500827,127.9068680289
필레오,경상남도 거창군 거창읍 창남3길 30,음식점 및 주점업,35.6843587,127.9158513
아낌없이주는나무,경상남도 거창군 거창읍 거열로6길 56-21,교육 서비스업,35.6902341,127.9061723
명성유리,경상남도 거창군 거창읍 거열로2길 72-12,소매업; 자동차 제외,35.6937573,127.9145822
예슬헤어,경상남도 거창군 거창읍 거창대로 76 2층,기타 개인 서비스업,35.6882715,127.9158265
사대부,경상남도 거창군 거창읍 거창대로 36,음식점 및 주점업,35.6849542,127.9174474
비엠헬스케어,경상남도 거창군 거창읍 중앙로 115,소매업; 자동차 제외,35.6866134,127.9109477
마리반점,경상남도 거창군 위천면 송계로 300,음식점 및 주점업,35.7497436,127.8346247
조이플,경상남도 거창군 거창읍 아림로2길 27,음식점 및 주점업,35.6883276,127.9112318
생각하는나무 국어학원,경상남도 거창군 거창읍 상동7길 47-17,교육 서비스업,35.6882271,127.9066825
생각하는나무 국어학원,경상남도 거창군 거창읍 상동7길 47-17,교육 서비스업,35.6882243224,127.9066852645
거창가스,경상남도 거창군 남상면 수남로 1812,소매업; 자동차 제외,35.6422145,127.9074614
"오늘도,뷰티",경상남도 거창군 거창읍 상동1길 45(웰리스아파트),기타 개인 서비스업,35.686861,127.9067037
푼푼수제청,경상남도 거창군 거창읍 중앙로 140,음식점 및 주점업,35.6868324,127.9140345
오성농약할인마트,경상남도 거창군 가조면 가조가야로 1099,도매 및 상품 중개업,35.7104234353,128.0151116212
이마트24 거창수승대광장점,경상남도 거창군 위천면 송계로 441,소매업; 자동차 제외,35.76116,127.8330223
고제100번상회,경상남도 거창군 거창읍 시장3길 11,소매업; 자동차 제외,35.6861949,127.914735
아이림수학교습소,경상남도 거창군 거창읍 거열로5길 8-19,교육 서비스업,35.6896758,127.9063022
산랩커피,경상남도 거창군 거창읍 아림로 26,음식점 및 주점업,35.6854357,127.9110945
동행S&S,경상남도 거창군 거창읍 공수들1길 29,소매업; 자동차 제외,35.685788,127.9002153
그집,경상남도 거창군 거창읍 운정1길 15,음식점 및 주점업,35.6791211,127.9014404
까페 해와달,경상남도 거창군 가조면 마상4길 23,음식점 및 주점업,35.7068222,128.0153066
마스터영어,경상남도 거창군 거창읍 거열로5길 16-15,교육 서비스업,35.6898191,127.9056958
동인비화장품,경상남도 거창군 거창읍 강변로 127,소매업; 자동차 제외,35.6846339,127.9109004
커피베이 경남거창점,경상남도 거창군 거창읍 거창대로 63,음식점 및 주점업,35.6872726,127.915806
양푼이동태탕만복식당,경상남도 거창군 거창읍 시장3길 11,음식점 및 주점업,35.6861949,127.914735
봉구네고깃집,경상남도 거창군 거창읍 공수들5길 32,음식점 및 주점업,35.6867429,127.9033444
북상2124,경상남도 거창군 북상면 덕유월성로 2124,음식점 및 주점업,35.7781605,127.8008158
소르기타전문학원,경상남도 거창군 거창읍 거열로5길 36,교육 서비스업,35.6896682,127.9052784
공부의신학원,경상남도 거창군 거창읍 아림로 60,교육 서비스업,35.688386,127.9097444
대동청기와,경상남도 거창군 거창읍 가조가야로 196,소매업; 자동차 제외,35.7036253,127.9378468
나우커피 거창강변로점,"경상남도 거창군 거창읍 강변로 127, 104호(한성CITY타워)",소매업; 자동차 제외,35.6846339,127.9109004
사과숲애,경상남도 거창군 주상면 거기2길 124,기타 개인 서비스업,35.7589461,127.9459244
"참,고운에스테틱",경상남도 거창군 거창읍 시장길 10,기타 개인 서비스업,35.6854862,127.9113646
등대,경상남도 거창군 거창읍 공수들6길 31,음식점 및 주점업,35.6875818,127.9033665
"타이거킹, 푸른바다",경상남도 거창군 거창읍 강변로 309 단층,소매업; 자동차 제외,35.6928648,127.9245275
후루룩국수,경상남도 거창군 거창읍 거창대로 88,음식점 및 주점업,35.6893653,127.9154146
카페 아고라,경상남도 거창군 거창읍 공수들2길 26,음식점 및 주점업,35.6870017,127.9017123
이모네,경상남도 거창군 거창읍 동동6길 77,음식점 및 주점업,35.6907204371,127.9236302904
이모네,경상남도 거창군 거창읍 동동6길 77 이모네,음식점 및 주점업,35.6907204,127.9236306
스펀지,경상남도 거창군 거창읍 중앙로 128,소매업; 자동차 제외,35.6867456646,127.9123108263
GS25 거창주공점,경상남도 거창군 거창읍 거함대로4길 33,소매업; 자동차 제외,35.6822269,127.9152497
GS25 거창주공점,경상남도 거창군 거창읍 거함대로4길 33,소매업; 자동차 제외,35.6822268712,127.915249402
고속타이어,경상남도 거창군 거창읍 밤티재로 1327 고속타이어,자동차 및 부품 판매업,35.6737963,127.9318657
비전 타일 도기 리모델링,"경상남도 거창군 남하면 지산로 775-9, 1동(지산시설원예영농조합법인)",전문직별 공사업,35.6652799,128.0026604
부동산좋은자리,경상남도 거창군 거창읍 거열로 144,부동산업,35.6892454,127.9096169
거창 플로렌스 간호학원,경상남도 거창군 거창읍 상동7길 91,교육 서비스업,35.6880489,127.9093622
곰쉐프식탁,경상남도 거창군 거창읍 아림로 19,음식점 및 주점업,35.6849341,127.91096
힐링카페,경상남도 거창군 가조면 의상봉길 840,음식점 및 주점업,35.7373062,128.0421219
신일약국,경상남도 거창군 거창읍 거열로 116,소매업; 자동차 제외,35.6886058,127.9065094
우리떡방앗간,경상남도 거창군 남상면 수남로 1861-62,식료품 제조업,35.6459679,127.9091969
죽전공원분식카페,경상남도 거창군 거창읍 교촌길 99-26,음식점 및 주점업,35.6922282,127.9040593
만물 농산물센터,경상남도 거창군 거창읍 수남로 2283,소매업; 자동차 제외,35.6827527,127.9118485
송정마트,경상남도 거창군 거창읍 강남로1길 96,소매업; 자동차 제외,35.6821837,127.9060207
이불마트,경상남도 거창군 거창읍 중앙로 167,소매업; 자동차 제외,35.6881413,127.9164571
거창에콜리안골프장음식점,경상남도 거창군 가조면 우륵길 410-284 거창에콜리안음식점,음식점 및 주점업,35.6937689,128.0563678
남상가든,경상남도 거창군 남상면 수남로 1821,음식점 및 주점업,35.6430453,127.9074909
두가지,경상남도 거창군 거창읍 공수들5길 53,음식점 및 주점업,35.6876998,127.9029599
금강사우나,경상남도 거창군 거창읍 소만4길 31-7,소매업; 자동차 제외,35.6935172,127.9236325
금강사우나,경상남도 거창군 거창읍 소만4길 31-7,소매업; 자동차 제외,35.6935157171,127.9236508494
스시집,경상남도 거창군 거창읍 중앙로 140,음식점 및 주점업,35.6868324,127.9140345
아이엠피카소,경상남도 거창군 거창읍 아림로3길 6,교육 서비스업,35.6886811,127.9098228
주식회사 푸른솔,경상남도 거창군 거창읍 거열로 98,교육 서비스업,35.6883663,127.9046361
생선나라,경상남도 거창군 거창읍 거함대로4길 33,소매업; 자동차 제외,35.6822269,127.9152497
늘푸른마트,경상남도 거창군 거창읍 거함대로4길 59,소매업; 자동차 제외,35.6828203,127.9141289
와플대학거창캠퍼스,경상남도 거창군 거창읍 중앙로 131-1,음식점 및 주점업,35.6870917,127.9126377
이현임업,경상남도 거창군 거창읍 거열로4길 111(송림2차 하늘안 아파트),임업,35.693676785,127.9066828345
정다운푸드,경남 거창군 거창읍 아림로2길 29,음식점 및 주점업,35.688365,127.9113889
와이스포츠센타,경상남도 거창군 거창읍 밤티재로 1288,스포츠 및 오락관련 서비스업,35.6706178,127.9324909
삼성장식,경남 거창군 거창읍 중앙로1길 44-5,소매업; 자동차 제외,35.688526,127.9149903
단미네일&속눈썹,경상남도 거창군 거창읍 상동2길 63,기타 개인 서비스업,35.6881845,127.9074679
마루농원,경상남도 거창군 거창읍 갈지길 261-57,소매업; 자동차 제외,35.7084347,127.8905016
거창홍보관,경상남도 거창군 거창읍 공수들7길 49-4,도매 및 상품 중개업,35.6862297,127.9025915
버거킹경남거창점,경남 거창군 거창읍 거열로 106,음식점 및 주점업,35.688471,127.9054728
실용음악 교습소,경상남도 거창군 거창읍 상동7길 13 실용음악교습소,교육 서비스업,35.6874159,127.9051607
단비동물병원,경남 거창군 거창읍 강변로 83,기타 개인 서비스업,35.6841363,127.9061984
브레이닝과학,경상남도 거창군 거창읍 거열로4길 7-13,교육 서비스업,35.6895772,127.9067761
장수촌,경상남도 거창군 거창읍 창동로 155,음식점 및 주점업,35.6910346,127.9195479
메가커피 거창산단점,경상남도 거창군 남상면 승강기길 58,음식점 및 주점업,35.6535048,127.9304466
치밥치밥,경상남도 거창군 거창읍 중앙로 140,음식점 및 주점업,35.6868619103,127.9141185519
카츠야,경상남도 거창군 거창읍 하동1길 66,음식점 및 주점업,35.689802469,127.9117681884
카츠야,경상남도 거창군 거창읍 하동1길 66,음식점 및 주점업,35.6898025,127.9117685
우담,경남 거창군 거창읍 밭들길 87,소매업; 자동차 제외,35.6858205,127.9244319
도아헤어,경상남도 거창군 거창읍 거창대로 91,기타 개인 서비스업,35.6897076,127.9148865
밀턴영어Language School,경상남도 거창군 거창읍 거열로5길 16-13,교육 서비스업,35.6897417,127.9056008
청송분재식물원,경상남도 거창군 거창읍 거열로 33,소매업; 자동차 제외,35.6854351,127.8990125
전골대통령,경상남도 거창군 거창읍 강남로 266(거창코아루에듀시티),음식점 및 주점업,35.6872339,127.9262853
아이엘음악학원,경상남도 거창군 거창읍 창동로 135,교육 서비스업,35.6891055,127.9199901
거창 번호판,경남 거창군 거창읍 대평3길 33,금속 가공제품 제조업; 기계 및 가구 제외,35.6842228,127.921065
브롱스 거창점,경상남도 거창군 거창읍 공수들7길 23,음식점 및 주점업,35.6861203,127.9010074
서경매점,경상남도 거창군 거창읍 송정1길 24-20,소매업; 자동차 제외,35.6816941,127.8984609
꽃이핀데이,경상남도 거창군 마리면 고신1길 33-14,식료품 제조업,35.684094,127.8272809
덕유산민박,경상남도 거창군 북상면 덕유월성로 1225,숙박업,35.7682984,127.7239339
그린스크린골프연습장,경상남도 거창군 거창읍 강변로 157,기타 개인 서비스업,35.685603,127.9142084
덕규인삼,경상남도 거창군 거창읍 중앙로 140,소매업; 자동차 제외,35.6868324,127.9140345
핸드아트 교육센터,경남 거창군 거창읍 강남로3길 14,교육 서비스업,35.6823027,127.9077731
예감쪽갈비,경상남도 거창군 거창읍 거열로 203,음식점 및 주점업,35.691176,127.9157556
월천식당,경남 거창군 거창읍 중앙로 140,음식점 및 주점업,35.6868324,127.9140345
천금분식,경남 거창군 거창읍 대동리 79-2,음식점 및 주점업,35.6887609,127.9195446
발렌타인모텔,경상남도 거창군 거창읍 강남로 210-10,숙박업,35.6856324,127.9200706
네일메이,경상남도 거창군 거창읍 수남로 2259,기타 개인 서비스업,35.6806622,127.9119937
우두산황금참옻닭,경상남도 거창군 가조면 상수월길 39-16,음식점 및 주점업,35.7172098,128.0282143
파스타부오노거창점,경상남도 거창군 거창읍 아림로 23,음식점 및 주점업,35.6851645,127.9105465
미유독서실,경상남도 거창군 거창읍 거열로4길 152,"창작, 예술 및 여가관련 서비스업",35.6951881,127.9064453
이엠이코리아(거창점),경상남도 거창군 거창읍 공수들7길 22,자동차 및 부품 판매업,35.6858588,127.9010608
다미헤어샵,경상남도 거창군 거창읍 거창대로1길 38,기타 개인 서비스업,35.6874316,127.9181869
에이스골프랜드,경남 거창군 거창읍 강양4길 20,기타 개인 서비스업,35.6896507569,127.9181174649
에이스골프랜드,경남 거창군 거창읍 강양4길 20,기타 개인 서비스업,35.6896586,127.9181217
야식타임,경상남도 거창군 거창읍 강변로 255,음식점 및 주점업,35.6889985,127.9240105
케이투,경상남도 거창군 거창읍 중앙로 131,소매업; 자동차 제외,35.6870709,127.9125612
대경부동산중개사무소,경남 거창군 거창읍 거열로7길 25,부동산업,35.6893795994,127.9020332518
대경부동산중개사무소,경남 거창군 거창읍 거열로7길 25,부동산업,35.6893797698,127.902032777
신아영개인과외,경상남도 거창군 거창읍 거열로1길 89 701호,교육 서비스업,35.6932788,127.9123448
코데즈 컴바인 이너웨어,경상남도 거창군 거창읍 아림로 26-1 코데즈컴바인이너웨어,소매업; 자동차 제외,35.6855656,127.9109751
김밥나라,경상남도 거창군 거창읍 중앙로 125,음식점 및 주점업,35.6869468,127.9121399
유니 살롱,경상남도 거창군 거창읍 거열로 204,기타 개인 서비스업,35.6909058,127.9159294
더 스팀,경상남도 거창군 거창읍 거열로 204,소매업; 자동차 제외,35.6909058,127.9159294
동안관리,경상남도 거창군 거창읍 공수들5길 54,기타 개인 서비스업,35.6878523,127.9031741
대성스크린골프,경남 거창군 남상면 승강기단지길 94,스포츠 및 오락관련 서비스업,35.6540976,127.9197807
법무사윤맹식사무소,경상남도 거창군 거창읍 중앙로 104,전문 서비스업,35.6857985,127.9100418
맛나라분식,경상남도 거창군 거창읍 창남2길 68,음식점 및 주점업,35.6845045,127.9165079
송림헤어,경상남도 거창군 거창읍 거열로 231(2층),기타 개인 서비스업,35.6928335414,127.9179921074
우주상점,경남 거창군 거창읍 하동1길 20,소매업; 자동차 제외,35.6876701,127.9120691
온누리국어논술,경상남도 거창군 거창읍 상동길 50-6,기타 개인 서비스업,35.6880812,127.9045882
청년다방 거창중앙점,경상남도 거창군 거창읍 중앙로 136,음식점 및 주점업,35.6869689,127.9132217
심수니,경상남도 거창군 거창읍 김천1길 51(드림빌리지 3차),기타 개인 서비스업,35.6771522,127.9089971
농업회사법인 주식회사 엉클팜,경남 거창군 거창읍 거창대학로 72,식료품 제조업,35.6752709,127.9128409
거창오미자,경상남도 거창군 가북면 몽석1길 35,소매업; 자동차 제외,35.7924394,128.0150331
틴플러스수학,경남 거창군 거창읍 상동2길 25-8,교육 서비스업,35.6866845,127.9075274
프리미엄 밀키트 앤 아이스크림,경상남도 거창군 거창읍 송정7길 86,소매업; 자동차 제외,35.6805333691,127.9105393135
프리미엄 밀키트 앤 아이스크림,경상남도 거창군 거창읍 송정7길 86,소매업; 자동차 제외,35.6805633,127.9105353
오소소,경남 거창군 거창읍 수남로 2203,소매업; 자동차 제외,35.6757588,127.9110691
한림학원,경남 거창군 거창읍 상동7길 9-12,교육 서비스업,35.6877283,127.9049268
거창인의밥상,경상남도 거창군 거창읍 중앙로 140,음식점 및 주점업,35.6868324,127.9140345
땅스부대찌개 거창시장점,경남 거창군 거창읍 중앙로 140,식료품 제조업,35.6868324,127.9140345
거창타일도기상사,경상남도 거창군 거창읍 창동로 158,소매업; 자동차 제외,35.6912621796,127.9199340515
장어랑고기랑,경남 거창군 거창읍 공수들3길 46,음식점 및 주점업,35.687051,127.903296
대동식당,경남 거창군 거창읍 대동리 873,음식점 및 주점업,35.6866234,127.9152128
장충동왕족발보쌈,경상남도 거창군 거창읍 거창대로 34,음식점 및 주점업,35.6847141,127.9174559
옛날통닭,경상남도 거창군 거창읍 중앙로 140,음식점 및 주점업,35.6868324,127.9140345
신 건축사사무소,경남 거창군 거창읍 거열로 167,"건축 기술, 엔지니어링 및 기타 과학기술 서비스업",35.6901886,127.9119675
푸드스토리(Foodstory),경상남도 거창군 거창읍 중앙로1길 75,음식점 및 주점업,35.6896388,127.9159255
신진식당,경남 거창군 거창읍 시장길 80,음식점 및 주점업,35.6866415,127.9150803
거창정보통신,경남 거창군 위천면 원학길 356,소매업; 자동차 제외,35.750258,127.8317456
한국농산,경상남도 거창군 거창읍 중앙로1길 48,소매업; 자동차 제외,35.6886723,127.9151342
시장농산,경상남도 거창군 거창읍 시장길 68,소매업; 자동차 제외,35.6863948,127.9143933
루나221,경상남도 거창군 신원면 신차로 3055-1,음식점 및 주점업,35.5668563,127.9256844
오늘쉐프,경상남도 거창군 거창읍 거열로7길 25,음식점 및 주점업,35.6893798,127.9020328
제이드림,경남 거창군 거창읍 죽전7길 13,도매 및 상품 중개업,35.69298,127.9130019
리니패브릭&레진,경상남도 거창군 거창읍 하동1길 16,소매업; 자동차 제외,35.6875376,127.9120616
가조농약종묘사,경상남도 거창군 가조면 지산로 1494,소매업; 자동차 제외,35.7100437,128.0159503
거창골프랜드,경상남도 거창군 거창읍 운정3길 161,스포츠 및 오락관련 서비스업,35.6757479,127.8918434
형제횟집,경상남도 거창군 거창읍 수남로 2266,음식점 및 주점업,35.6811342,127.9124528
알리바바거창점,경상남도 거창군 거창읍 강변로 255,음식점 및 주점업,35.6889985,127.9240105
제이티(JT)수학교습소,경남 거창군 거창읍 상동7길 47-5,교육 서비스업,35.6877557,127.9067959
엔젤드론교육원,경남 거창군 거창읍 거창대학로 72,교육 서비스업,35.6732025593,127.9124186594
엔젤드론교육원,경남 거창군 거창읍 거창대학로 72,교육 서비스업,35.6752709,127.9128409
그레잇출장스팀세차,"경상남도 거창군 거창읍 거열로7길 39, 104동 1505호(상동주공아파트)",음식점 및 주점업,35.6900179,127.9010875
강남피부관리샵,경상남도 거창군 거창읍 시장2길 20(2층),기타 개인 서비스업,35.6860963,127.9134569
복돈우,경상남도 거창군 거창읍 공수들7길 62 븍돈우,음식점 및 주점업,35.6860267,127.9031618
거창피부미용학원,경상남도 거창군 거창읍 중앙로 127,기타 개인 서비스업,35.6870506,127.9122968
컬러코코,경남 거창군 거창읍 중앙로1길 1,전문 서비스업,35.6874331058,127.9131227694
컬러코코,경남 거창군 거창읍 중앙로1길 1,전문 서비스업,35.6874409469,127.9131324947
카페리시안,경상남도 거창군 거창읍 거열로4길 21,음식점 및 주점업,35.6898492,127.9069368
14번상회,경상남도 거창군 거창읍 시장3길 20,소매업; 자동차 제외,35.686497,127.9148754
신불떡볶이거창점,경상남도 거창군 거창읍 아림로 51,음식점 및 주점업,35.6876541,127.9097243
루이까스텔 거창점,경상남도 거창군 거창읍 중앙로 123-2,소매업; 자동차 제외,35.6868946,127.9119388
샵(#)블링,경상남도 거창군 거창읍 거열로 235,기타 개인 서비스업,35.69313,127.9182379
명품마라탕,경상남도 거창군 거창읍 중앙로 117,음식점 및 주점업,35.6866649,127.9112249
베테랑식당,경상남도 거창군 거창읍 강남로1길 20,음식점 및 주점업,35.6821824,127.9018458
양쌤수학,경상남도 거창군 거창읍 거열로5길 16-15,교육 서비스업,35.6898191,127.9056958
수산한일,경상남도 거창군 거창읍 거함대로 3277,도매 및 상품 중개업,35.6807865,127.919308
취팔러마 중화요리,경남 거창군 거창읍 중앙로 140,음식점 및 주점업,35.6868324,127.9140345
이원건강의료기,경남 거창군 거창읍 강변로 177,소매업; 자동차 제외,35.6861702,127.9161017
잇츠버거,경상남도 거창군 거창읍 중앙로 140,음식점 및 주점업,35.6868324,127.9140345
밥장인 돼지찌개 거창점,경상남도 거창군 거창읍 중앙로 140,음식점 및 주점업,35.6868324,127.9140345
윤푸드,경상남도 거창군 거창읍 중앙로 140,음식점 및 주점업,35.6868324,127.9140345
서울장식,경남 거창군 거창읍 창동로 176,소매업; 자동차 제외,35.6928147,127.919989
포커스(거창점),경상남도 거창군 거창읍 중앙로 145,소매업; 자동차 제외,35.6874466,127.9141307
서니상사,경상남도 거창군 거창읍 창동로 171,도매 및 상품 중개업,35.6925087,127.9196391
픽스영어학원,경상남도 거창군 거창읍 상동6길 13(유빌리지 2차아파트),교육 서비스업,35.6885262,127.9080391
모려촌24시 생굴 뚝배기 전문점,경상남도 거창군 거창읍 상동길 50,음식점 및 주점업,35.6883269,127.9044251
오밀제과점,경상남도 거창군 거창읍 송정1길 24-6,음식점 및 주점업,35.6815656,127.8985043
케빈커피로스터스,경남 거창군 거창읍 공수들7길 56,음식점 및 주점업,35.6860062,127.9028902
금천샷시,경상남도 거창군 거창읍 강양2길 22,소매업; 자동차 제외,35.6915648,127.9177185
대경종합장식,경상남도 거창군 거창읍 거창대로 86-1,소매업; 자동차 제외,35.6892659904,127.9154333248
삼백칼국수,경남 거창군 거창읍 강양4길 36,음식점 및 주점업,35.6903386,127.9194621
리티댄스학원,경남 거창군 거창읍 죽전1길 13,교육 서비스업,35.6898868,127.9086976
보고슈퍼,경상남도 거창군 거창읍 거열로1길 25 보고슈퍼,소매업; 자동차 제외,35.6918103,127.9141201
진얼도예,경상남도 거창군 위천면 상천길 50-151,소매업; 자동차 제외,35.7496991,127.818787
선희야칼국수,경상남도 거창군 거창읍 하동2길 7,음식점 및 주점업,35.687789,127.9135203
대성이용원,"경상남도 거창군 거창읍 아림로 61, 2층",기타 개인 서비스업,35.6884916,127.9093936
느티나무언어심리센터,경상남도 거창군 거창읍 강변로3길 14,기타 개인 서비스업,35.6840574,127.9020228
다온언어심리센터,경상남도 거창군 거창읍 강변로3길 14,기타 개인 서비스업,35.6840574,127.9020228
써브웨이 거창점,경상남도 거창군 거창읍 중앙로 120 1층,음식점 및 주점업,35.6864778,127.9115544
소민농원,경상남도 거창군 가북면 보해길 862,농업,35.7933221092,127.962597701
소민농원,경상남도 거창군 가북면 보해길 862,농업,35.7933221469,127.9625976742
팔십팔(88),경상남도 거창군 거창읍 아림로 16 1층 88,음식점 및 주점업,35.684823,127.9113503
태백지업사,경상남도 거창군 거창읍 시장2길 15,소매업; 자동차 제외,35.6858556,127.9133871
삼미짱야식,경상남도 거창군 거창읍 수남로 2287,음식점 및 주점업,35.6829009,127.9117637
신성모터스,경상남도 거창군 거창읍 강남로1길 85-1,개인 및 소비용품 수리업,35.6822064,127.9050071
연희스킨케어,경상남도 거창군 거창읍 중앙로 71-1,기타 개인 서비스업,35.685365,127.9064617
가조온천골칼국수스시,경남 거창군 가조면 의상봉길 45-36,음식점 및 주점업,35.709248,128.0170296
고피자 경남거창점,경상남도 거창군 거창읍 아림로 31,음식점 및 주점업,35.6859873,127.9104746
중앙안경콘택트,"경상남도 거창군 거창읍 거창대로1길 7-2, 1층",소매업; 자동차 제외,35.6873041,127.9167346
오드리뷰티,경상남도 거창군 거창읍 강남로 178-1,소매업; 자동차 제외,35.6846947561,127.9166934426
미자(MIJA)카페,경상남도 거창군 거창읍 거열로4길 21,음식점 및 주점업,35.6898492,127.9069368
청년돈까스,경상남도 거창군 거창읍 중앙로 140,음식점 및 주점업,35.6868324,127.9140345
노개명수학학원,경남 거창군 거창읍 상동길 50-22,교육 서비스업,35.6882061,127.9054237
대평다육농장,경상남도 거창군 거창읍 거함대로 3339-39,소매업; 자동차 제외,35.6784392,127.9263605
천지연사우나,경상남도 거창군 거창읍 동동6길 67,기타 개인 서비스업,35.6907915775,127.9230451156
천지연사우나,경상남도 거창군 거창읍 동동6길 67,기타 개인 서비스업,35.6907909,127.9230426
거창 부자 블라인드,경남 거창군 거창읍 송정2길 34-4,도매 및 상품 중개업,35.6813769,127.9014766
라뽐므,경상남도 거창군 거창읍 아림로2길 19-3,음식점 및 주점업,35.6882831,127.9106616
카앤워시,경상남도 거창군 거창읍 강남로 78,기타 개인 서비스업,35.6825964,127.9059834
희야분식,경상남도 거창군 거창읍 아림로1길 16,음식점 및 주점업,35.6852965,127.9100808
미스터피자거창점,경상남도 거창군 거창읍 거열로 131,음식점 및 주점업,35.6892338,127.9081137
장류마실,경상남도 거창군 거창읍 송정2길 34-4,소매업; 자동차 제외,35.6813769,127.9014766
세농부,경상남도 거창군 남상면 내춘길 125-49,소매업; 자동차 제외,35.5880885,127.8504971
신흥농기계,경상남도 거창군 남상면 밤티재로 1194,소매업; 자동차 제외,35.6619847,127.9321532
동남식당,경상남도 거창군 거창읍 강남로 228 동남식당,음식점 및 주점업,35.6865576,127.9216701
이우동,경상남도 거창군 거창읍 거열로 140,음식점 및 주점업,35.6890702,127.9090234
다미향한식뷔페,경상남도 거창군 거창읍 공수들2길 38,음식점 및 주점업,35.6873214,127.9021543
메기촌,경상남도 거창군 가조면 지산로 1475-8,음식점 및 주점업,35.7084091,128.015491
인생네컷 거창점,경남 거창군 거창읍 하동1길 3,"기타 전문, 과학 및 기술 서비스업",35.6869040293,127.9119994475
양말이야기,경상남도 거창군 거창읍 개봉길 16-3,소매업; 자동차 제외,35.693256,127.9172124
양말이야기,경상남도 거창군 거창읍 개봉길 16-3,소매업; 자동차 제외,35.6931743299,127.9172397763
(주)그라운드스토리,경남 거창군 거창읍 아림로2길 62,도매 및 상품 중개업,35.6886217,127.9130438
치키치키통닭,경상남도 거창군 가조면 가조가야로 1110-13,음식점 및 주점업,35.7100198,128.0165936
(Atelier)소은,경상남도 거창군 거창읍 하동1길 30,소매업; 자동차 제외,35.6881420347,127.9119443845
가조축산,경상남도 거창군 가조면 지산로 1488,소매업; 자동차 제외,35.7094765,128.0161322
카페 라핀,경상남도 거창군 가조면 방촌길 46,음식점 및 주점업,35.7049253,128.0154165
카페서울,경상남도 거창군 거창읍 상동8길 52,음식점 및 주점업,35.6859569,127.9078948
배달돼지,경상남도 거창군 거창읍 하동1길 16,음식점 및 주점업,35.6875376,127.9120616
팜듀(참선진녹즙),경상남도 거창군 거창읍 아림로 22-1,소매업; 자동차 제외,35.6852508,127.9111688
일엽청농원,경남 거창군 가조면 창마1길 62-10,소매업; 자동차 제외,35.719614,128.0022685
달콤포도원,경상남도 거창군 가조면 동례길 139-99,소매업; 자동차 제외,35.7099711,128.0042545
이모네국식,경상남도 거창군 가조면 온천길 161,음식점 및 주점업,35.698493,128.022912
꽃큰,경상남도 거창군 거창읍 시장길 32,도매 및 상품 중개업,35.6858693,127.9125295
홈,경상남도 거창군 거창읍 죽전1길 37 2층 2호,소매업; 자동차 제외,35.6909499,127.9087035
신화문구,경상남도 거창군 거창읍 창남1길 54,소매업; 자동차 제외,35.6826537,127.9149965
학생사,경상남도 거창군 거창읍 거열로 140,소매업; 자동차 제외,35.6890702,127.9090234
가온 스크린 골프,경상남도 거창군 거창읍 상동길 6,스포츠 및 오락관련 서비스업,35.6844761,127.9057138
근대화 연쇄점,경상남도 거창군 웅양면 웅양로 1425-1 근대화연쇄점,소매업; 자동차 제외,35.804676,127.9179318
용궁포차,경상남도 거창군 가조면 지산로 1492,음식점 및 주점업,35.7098385,128.0159974
거창상담지원센터,경상남도 거창군 거창읍 거열로 122-1,사회복지 서비스업,35.68872,127.9072599
산해진미,경상남도 거창군 거창읍 중앙로 140,도매 및 상품 중개업,35.6868324,127.9140345
당구장으로와,경상남도 거창군 가조면 가조가야로 1096,스포츠 및 오락관련 서비스업,35.7100916,128.0147306
니즈(needs) 스터디카페,경상남도 거창군 거창읍 상동7길 23-9,"창작, 예술 및 여가관련 서비스업",35.6876955,127.905519
히어리,경남 거창군 거창읍 창동로 75,교육 서비스업,35.6840241,127.9220146
히어리,경남 거창군 거창읍 창동로 75,교육 서비스업,35.6840247062,127.9220157505
거창제일LPG충전소,경상남도 거창군 거창읍 거함대로 3277,소매업; 자동차 제외,35.6807865,127.919308
세븐일레븐 거창도립대학교점,경상남도 거창군 거창읍 거창대학로 72,소매업; 자동차 제외,35.6752709,127.9128409
정뷰티,경상남도 거창군 거창읍 중앙로 127,기타 개인 서비스업,35.6870506,127.9122968
국제모터스,경상남도 거창군 거창읍 수남로 2268-1,자동차 및 부품 판매업,35.6814817,127.9125059
연화정삼계탕,경상남도 거창군 거창읍 대평3길 72,음식점 및 주점업,35.68575,127.9208217
옹가네반점,경상남도 거창군 거창읍 거열로1길 49,음식점 및 주점업,35.6929121,127.9137281
케이와이지 컴퍼니,"경상남도 거창군 거창읍 거열로4길 144-21, 103동 1109호(대우아파트)",소매업; 자동차 제외,35.695331,127.9075142
우리할매돼지국밥,경상남도 거창군 거창읍 강남로 176,음식점 및 주점업,35.6845904,127.9165105
위드유 편의점,경상남도 거창군 거창읍 상동7길 29,소매업; 자동차 제외,35.687507,127.906
영자네포차,경상남도 거창군 거창읍 아림로1길 22,음식점 및 주점업,35.6852827,127.90958
장희빈소주방,경상남도 거창군 거창읍 중앙로1길 48,음식점 및 주점업,35.6886723,127.9151342
대성돼지머리양념,경상남도 거창군 거창읍 상동8길 49,식료품 제조업,35.6860801559,127.9077227951
대성돼지머리양념,경상남도 거창군 거창읍 상동8길 49,식료품 제조업,35.6860803,127.9077224
주식회사 모텔두바이,경상남도 거창군 거창읍 중앙로 154-10,숙박업,35.6872658,127.9152508
위천탕,경상남도 거창군 위천면 금원산길 9,기타 개인 서비스업,35.7505632,127.8297922
올리브영 경남거창점,경상남도 거창군 거창읍 중앙로 136,소매업; 자동차 제외,35.6869689,127.9132217
아소비학원,경남 거창군 거창읍 상동7길 31-14,교육 서비스업,35.6879674333,127.9061717886
커피디오(coffee-do),경상남도 거창군 거창읍 거창대로 56,소매업; 자동차 제외,35.6866262,127.9165456
유에어(U-air)드론교육원,경남 거창군 거창읍 거열로4길 250-20,교육 서비스업,35.6989904,127.904076
그린조이,경상남도 거창군 거창읍 중앙로 122,소매업; 자동차 제외,35.6865497,127.9118511
참숯벽돌집,경상남도 거창군 거창읍 상동5길 13-9,음식점 및 주점업,35.6879339,127.9059165
6교치킨,경상남도 거창군 거창읍 강변로 277,음식점 및 주점업,35.6902616,127.9257445
백초분식,경남 거창군 가조면 가조가야로 1115-1,음식점 및 주점업,35.7104513,128.0169671
라엠므바버샵,경상남도 거창군 거창읍 중앙로 65,기타 개인 서비스업,35.6852365641,127.9059263201
라엠므바버샵,경상남도 거창군 거창읍 중앙로 65,기타 개인 서비스업,35.6852366,127.9059266
에이원,경상남도 거창군 거창읍 강남로 254-11,전문직별 공사업,35.6870278,127.9245499
에이원,경상남도 거창군 거창읍 강남로 254-11,전문직별 공사업,35.687020743,127.9245815365
늘솜공방,경상남도 거창군 거창읍 거함대로4길 77,소매업; 자동차 제외,35.6831715,127.9131912
두발로,경상남도 거창군 거창읍 시장길 87 두발로 백화점,소매업; 자동차 제외,35.6869373,127.9152622
수피아베이커리,경상남도 거창군 거창읍 상동길 42-1,음식점 및 주점업,35.6875948,127.9045304
카페리시안,경상남도 거창군 거창읍 중촌2길 89,음식점 및 주점업,35.7005553,127.8976633
산과들 밀리터리 의류,경상남도 거창군 마리면 거안로 879,소매업; 자동차 제외,35.6988274,127.8594489
설대 수학 교습소,경남 거창군 거창읍 상동7길 51-22,교육 서비스업,35.6882739,127.9072802
이가해장국 국전문점,경상남도 거창군 거창읍 중앙로 140,음식점 및 주점업,35.6868324,127.9140345
팬텀(FANTOM),경상남도 거창군 거창읍 중앙로 152,소매업; 자동차 제외,35.6874004,127.9149072
휴일엔 펜션,경상남도 거창군 북상면 병곡길 187,숙박업,35.7918255,127.7889906
보보수학학원,경상남도 거창군 거창읍 상동7길 9-12,교육 서비스업,35.6877283,127.9049268
카페우노,경상남도 거창군 거창읍 새동네2길 37,음식점 및 주점업,35.6880198,127.9280406
가야두부,경상남도 거창군 거창읍 시장길 80,식료품 제조업,35.6866415,127.9150803
백씨네과수원,경남 거창군 주상면 보해길 432-72,도매 및 상품 중개업,35.7723132,127.9494698
대성탕,경남 거창군 거창읍 강남로 140,기타 개인 서비스업,35.6833889,127.9126882
보약장어왕메기 거창점,경남 거창군 거창읍 거열로 30,음식점 및 주점업,35.6848634,127.8991773
장미미장원,경상남도 거창군 거창읍 시장길 64-1,기타 개인 서비스업,35.686266,127.9142026
우드점포,경상남도 거창군 거창읍 강변로9길 51 603호,교육 서비스업,35.6889898,127.9175038
브레이닝수학교습소,경상남도 거창군 거창읍 상동7길 15-7,교육 서비스업,35.6876526,127.9051157
거북산장,경상남도 거창군 위천면 은하리길 43-99,음식점 및 주점업,35.7589083,127.8320013
옥계촌,경상남도 거창군 북상면 덕유월성로 1968,음식점 및 주점업,35.771539,127.7866988
중앙수입,경상남도 거창군 거창읍 중앙로 163-4,소매업; 자동차 제외,35.6879883,127.9162765
삼현골재,경상남도 거창군 거창읍 창동로 147,기타 개인 서비스업,35.6902117,127.9195516
이정선미용실,경상남도 거창군 거창읍 거창대로 82-1,기타 개인 서비스업,35.688874095,127.9155688524
이정선미용실,경상남도 거창군 거창읍 거창대로 82-1,기타 개인 서비스업,35.6889698,127.915637
꼬네,경상남도 거창군 거창읍 거열로 148,음식점 및 주점업,35.6893514,127.9100459
송이농산,경상남도 거창군 거창읍 중앙로 156,도매 및 상품 중개업,35.6874994,127.915279
타이어직매장,경상남도 거창군 거창읍 창남2길 10 타이어직매장,자동차 및 부품 판매업,35.6818208,127.9171231
몬나니네,경상남도 거창군 거창읍 아림로 55(외2필지),음식점 및 주점업,35.6879056,127.9096378
가미뷰티,경상남도 거창군 거창읍 대평2길 46,기타 개인 서비스업,35.6844364089,127.9197603481
아림천막,경상남도 거창군 거창읍 공수들3길 5,소매업; 자동차 제외,35.6863003,127.9015847
캄인사이드,경남 거창군 거창읍 거열로1길 86,음식점 및 주점업,35.6939372,127.9122408
고구려짬뽕거창점,경상남도 거창군 거창읍 창남2길 65,음식점 및 주점업,35.6843959,127.9162666
꾸미국수,경상남도 거창군 거창읍 중앙로 158-1,음식점 및 주점업,35.6874212,127.9154501
한국일보 거창지국,경상남도 거창군 거창읍 강변로 155,소매업; 자동차 제외,35.6854369,127.913904
상림식당,경상남도 거창군 거창읍 중앙로 36,음식점 및 주점업,35.6844739,127.9027729
동아반점,경상남도 거창군 거창읍 거열로 162,음식점 및 주점업,35.6896985,127.9113019
공예카페별솔,경상남도 거창군 거창읍 아림로 49-1,소매업; 자동차 제외,35.6875662267,127.9098247454
케이투(k2),경상남도 거창군 거창읍 중앙로 131,소매업; 자동차 제외,35.6870709,127.9125612
더원농구교실,경상남도 거창군 가조면 월포1길 28(황제골든빌),교육 서비스업,35.7125263,128.0199125
평사리한정식,경상남도 거창군 거창읍 소만1길 31,음식점 및 주점업,35.6935259,127.9208988
김밥천국,경상남도 거창군 거창읍 중앙로 122,음식점 및 주점업,35.6865497,127.9118511
부엉이풀민박,경상남도 거창군 가북면 어인길 236-34,숙박업,35.7489554,127.9984244
정가네떡집,경상남도 거창군 거창읍 중앙로 140,식료품 제조업,35.6868324,127.9140345
거창제일안과,경남 거창군 거창읍 중앙로 157,보건업,35.6878573,127.9153148
월천권역영농조합법인,경상남도 거창군 거창읍 주곡로 220-14,숙박업,35.7148431,127.918342
글로 읽고 자리하다 독서실,경상남도 거창군 거창읍 거열로1길 100-24(나리안길아파트),"창작, 예술 및 여가관련 서비스업",35.6942676,127.9117647
만우식당,경상남도 거창군 거창읍 아림로 47-1,음식점 및 주점업,35.6873696,127.9098738
리더스 컨설팅,경상남도 거창군 거창읍 마동길 99-16,사업 지원 서비스업,35.6748238,127.9021382
으뜸손한우마을,경상남도 거창군 거창읍 거창대로2길 30,음식점 및 주점업,35.6878567,127.9174835
거창사랑요양보호사교육원,경상남도 거창군 거창읍 창동로 174,교육 서비스업,35.6925521,127.9199729
동박골농원,경상남도 거창군 거창읍 강남로 266(거창코아루에듀시티),소매업; 자동차 제외,35.6872339,127.9262853
장풍각,경상남도 거창군 마리면 송계로 13,음식점 및 주점업,35.7317157,127.8518074
정우당,경상남도 거창군 거창읍 시장길 8,소매업; 자동차 제외,35.6854691,127.9112335
투다리２점,경상남도 거창군 거창읍 중앙로 123 투다리2점,음식점 및 주점업,35.6868201,127.9118176
바이오스톤,"경상남도 거창군 거창읍 죽전7길 13, 바동 1층 511호",음식점 및 주점업,35.6925785185,127.9129509317
마리정미소,경상남도 거창군 마리면 거안로 787,식료품 제조업,35.6966018,127.8504346
천일사진관,경상남도 거창군 거창읍 아림로 31,"기타 전문, 과학 및 기술 서비스업",35.6859873,127.9104746
웅양권역 영농조합법인,경상남도 거창군 웅양면 화평길 6 .,스포츠 및 오락관련 서비스업,35.8017279,127.9153635
이원건강의료기,경상남도 거창군 거창읍 강변로 177,소매업; 자동차 제외,35.6861702,127.9161017
이진의료기,경상남도 거창군 거창읍 강변로 177,소매업; 자동차 제외,35.6861702,127.9161017
카페쿠쿠오나(박애정미소),경상남도 거창군 거창읍 죽전길 113,음식점 및 주점업,35.6907543,127.9123478
거창종합자동차정비,경남 거창군 거창읍 밤티재로 1268,개인 및 소비용품 수리업,35.6681589,127.9321117
농부의 꿈,경남 거창군 거창읍 죽전길 109-7,소매업; 자동차 제외,35.6908391441,127.9120860928
농부의 꿈,경남 거창군 거창읍 죽전길 109-7,소매업; 자동차 제외,35.6908389264,127.9120857802
하하식당,경상남도 거창군 거창읍 중앙로 140,음식점 및 주점업,35.6868324,127.9140345
뷰티샵,경상남도 거창군 거창읍 중앙로1길 5,기타 개인 서비스업,35.6873858,127.9133755
꽃돼지국밥,경상남도 거창군 남상면 승강기길 50,음식점 및 주점업,35.6539245,127.930745
Soup,경상남도 거창군 거창읍 중앙로 143-2,소매업; 자동차 제외,35.6874534,127.9140578
강남로또판매점,경상남도 거창군 거창읍 거창대로 32,소매업; 자동차 제외,35.6845361,127.9174613
신미식당,경상남도 거창군 거창읍 중앙로 140,음식점 및 주점업,35.6868324,127.9140345
송가네국밥,경상남도 거창군 거창읍 중앙로 140,음식점 및 주점업,35.6868324,127.9140345
그린장식,경상남도 거창군 거창읍 거열로 181 1층 그린장식,소매업; 자동차 제외,35.6905387,127.9133378
그린장식,경상남도 거창군 거창읍 거열로 181,소매업; 자동차 제외,35.6906371027,127.9132909741
한마음가스,경상남도 거창군 고제면 고제로 36,소매업; 자동차 제외,35.8121467,127.8735803
주연씽크전시장,경상남도 거창군 거창읍 거열로 189,소매업; 자동차 제외,35.6908009037,127.9141280341
국제반점,"경상남도 거창군 거창읍 밤티재로 1317, 1층",음식점 및 주점업,35.6727859,127.9315587
현옥플라워,경상남도 거창군 거창읍 아림로 59,소매업; 자동차 제외,35.6883839615,127.9094383212
한솔교육거창지사,"경상남도 거창군 거창읍 거열로8길 45, 203호(현대상가)",소매업; 자동차 제외,35.6887819,127.8998366
컴포즈커피(composecoffee)거창점,경상남도 거창군 거창읍 아림로 24,음식점 및 주점업,35.6852739,127.9110884
썬헬스케어,경상남도 거창군 거창읍 중앙로 126,소매업; 자동차 제외,35.6866762,127.9121687
수월산장,경상남도 거창군 가조면 의상봉길 662-22,음식점 및 주점업,35.7283114,128.0379287
아르더헤어살롱,경상남도 거창군 거창읍 송정5길 40,기타 개인 서비스업,35.6809494,127.9040843
태영생막창,경상남도 거창군 거창읍 공수들7길 22,음식점 및 주점업,35.6858588,127.9010608
몽이영어,경상남도 거창군 거창읍 상동7길 15-14,교육 서비스업,35.6879254,127.9053113
몽이영어,경상남도 거창군 거창읍 상동7길 15-14,교육 서비스업,35.6879246637,127.9053170132
파크랜드 거창점,경상남도 거창군 거창읍 거창대로 56,소매업; 자동차 제외,35.6866262,127.9165456
마리떡방앗간,경상남도 거창군 마리면 거안로 787,식료품 제조업,35.6966018,127.8504346
고봉민김밥,경상남도 거창군 거창읍 중앙로 112,음식점 및 주점업,35.6862775,127.9108083
필레오(Pileo,경상남도 거창군 거창읍 창남3길 30,음식점 및 주점업,35.6843587,127.9158513
개명산삼원,경상남도 거창군 고제면 송계로 1767-88,농업,35.8514639,127.8270122
공단식당,경상남도 거창군 남상면 승강기길 66-30,음식점 및 주점업,35.6535087,127.9294599
꾸밈,경상남도 거창군 거창읍 송정1길 147,기타 개인 서비스업,35.680784,127.9049659
꾸밈,경상남도 거창군 거창읍 송정1길 147,기타 개인 서비스업,35.6807839873,127.9049658666
거창고시텔,경상남도 거창군 거창읍 중앙로 75,"창작, 예술 및 여가관련 서비스업",35.6854634,127.9069028
왕개미분식,경상남도 거창군 거창읍 창남2길 64,음식점 및 주점업,35.6843365,127.9165566
보민샵,경상남도 거창군 가조면 마상3길 47,교육 서비스업,35.7118519,128.0167665
죽전텔레콤,경상남도 거창군 거창읍 거열로 172-1,소매업; 자동차 제외,35.6900272109,127.9124974452
작은골양어장식당,경상남도 거창군 가북면 수재길 152-20,음식점 및 주점업,35.8305774,127.97384
오토월드,경상남도 거창군 거창읍 거창대로 7,개인 및 소비용품 수리업,35.6824379718,127.9177079724
북부컴퓨터세탁소,경상남도 거창군 거창읍 거열로 178-1,기타 개인 서비스업,35.6901936,127.9132305
신원종합농기계,경상남도 거창군 신원면 신차로 3083,개인 및 소비용품 수리업,35.569453,127.9255663
땅지건축,경남 거창군 남하면 무릉3길 27,종합 건설업,35.6639263,127.9457513
봄날,경상남도 거창군 위천면 송계로 550-25,음식점 및 주점업,35.7703198,127.8256555
중앙이용원,경상남도 거창군 거창읍 시장3길 4,기타 개인 서비스업,35.6858202,127.9151428
다복건설,경상남도 거창군 거창읍 중앙로 25,기타 개인 서비스업,35.6846295,127.9015722
거창기획,경상남도 거창군 거창읍 거열로 197-1,소매업; 자동차 제외,35.6911125341,127.914984683
일박이일 민박식당,경상남도 거창군 가북면 용암로 391,음식점 및 주점업,35.7894961,128.0060805
노랑통닭 거창점,경상남도 거창군 거창읍 아림로 26-1,음식점 및 주점업,35.6855656,127.9109751
로얄자동차용품센타,경상남도 거창군 거창읍 창동로 173,자동차 및 부품 판매업,35.6927447,127.919662
상동야채,경상남도 거창군 거창읍 중앙로 140,소매업; 자동차 제외,35.6868324,127.9140345
바로통신주식회사,경상남도 거창군 거창읍 아림로 16 sk텔레콤 거창대리점,소매업; 자동차 제외,35.6848229281,127.9113499648
죽전쌀집,경상남도 거창군 거창읍 중앙로 140,소매업; 자동차 제외,35.6868324,127.9140345
아소비학원,경상남도 거창군 거창읍 상동7길 31-14,교육 서비스업,35.6879674,127.9061721
거창수승대마을 영농조합법인,경상남도 거창군 위천면 원학길 410,교육 서비스업,35.7526736,127.8310418
미담,경상남도 거창군 거창읍 강변로 133-1,음식점 및 주점업,35.6847295,127.9116763
경성태권도,경상남도 거창군 거창읍 거열로 109,교육 서비스업,35.6890042784,127.9056980149
해뜨락브런치카페,경상남도 거창군 위천면 송계로 426,음식점 및 주점업,35.7606628,127.8347926
빙기실영농조합법인,경상남도 거창군 북상면 병곡길 448 빙기실영농조합법인,숙박업,35.8100594,127.7758125
빙기실영농조합법인,경상남도 거창군 북상면 병곡길 448,숙박업,35.8100593747,127.7758122687
대우식당,경상남도 거창군 거창읍 중앙로 121-10,음식점 및 주점업,35.6870995,127.9115711
도라지상회,경상남도 거창군 거창읍 중앙로 140,소매업; 자동차 제외,35.6868324,127.9140345
하윤식당,경상남도 거창군 거창읍 중앙로 140,음식점 및 주점업,35.6868324,127.9140345
송정청과,경상남도 거창군 거창읍 중앙로 140,소매업; 자동차 제외,35.6868324,127.9140345
경주식당,경상남도 거창군 거창읍 중앙로 140,음식점 및 주점업,35.6868324,127.9140345
맛나니,경상남도 거창군 거창읍 중앙로 140,식료품 제조업,35.6868324,127.9140345
Carpenter Studio,경상남도 거창군 거창읍 장팔길 225-14,소매업; 자동차 제외,35.6701086,127.9059328
준 헤어샵,경상남도 거창군 거창읍 중앙로 172 준헤어샵,기타 개인 서비스업,35.6879379,127.9170755
어림지해장국,경상남도 거창군 거창읍 강남로 146,음식점 및 주점업,35.6835266894,127.9133925261
유정식당,"경상남도 거창군 가조면 가조가야로 1110-14, 1층",음식점 및 주점업,35.709906,128.0161799
아이원모텔,경상남도 거창군 가조면 온천길 32(아이원모텔),숙박업,35.6961021979,128.0227540936
아이원모텔,경상남도 거창군 가조면 온천길 32(아이원모텔),숙박업,35.6961352,128.0228235
신원발전소,경상남도 거창군 신원면 신차로 3098-9 .,"전기, 가스, 증기 및 공기 조절 공급업",35.5704444,127.9257774
비타민피부관리실,경상남도 거창군 거창읍 하동1길 10 비타민,기타 개인 서비스업,35.6871796,127.9121191
고이고이,경상남도 거창군 거창읍 상동8길 52,음식점 및 주점업,35.6859569,127.9078948
THE303returns,경상남도 거창군 거창읍 강변로 195,음식점 및 주점업,35.686789,127.9179878
상동스터디센터독서실,경상남도 거창군 거창읍 거열로 84,교육 서비스업,35.6881401,127.9030298
아이비클럽거창점,경상남도 거창군 거창읍 아림로 60,소매업; 자동차 제외,35.688386,127.9097444
하고리,경상남도 거창군 마리면 소곡2길 9-5,음식점 및 주점업,35.6858095,127.8757581
기호낚시,경상남도 거창군 거창읍 창동로 93(해광),소매업; 자동차 제외,35.6856925,127.92134
기호낚시,경상남도 거창군 거창읍 창동로 93(해광),소매업; 자동차 제외,35.6856980881,127.9213412734
자루,경상남도 거창군 거창읍 하동1길 14,소매업; 자동차 제외,35.687306,127.9121062
청담더맥한의원,경상남도 거창군 거창읍 거창대로 77(희성타운),보건업,35.6883449,127.9154049
앤유피씨 3호점,경상남도 거창군 거창읍 죽전1길 9,스포츠 및 오락관련 서비스업,35.6896762,127.9088316
심야보일러,경상남도 거창군 거창읍 대평7길 59,소매업; 자동차 제외,35.6839625823,127.9208812254
심야보일러,경상남도 거창군 거창읍 대평7길 59,소매업; 자동차 제외,35.6839764,127.9208756
빅픽처,경상남도 거창군 거창읍 상동7길 68,교육 서비스업,35.6876671,127.9080539
금호타이어 거창점,경상남도 거창군 거창읍 송정7길 66,개인 및 소비용품 수리업,35.6805761,127.9094712
행복공인중개사사무소,경상남도 거창군 거창읍 정장길 3 행복공인중개사사무소,부동산업,35.6780709,127.9116279
아진이네추어탕,경상남도 거창군 거창읍 중앙로 140,음식점 및 주점업,35.6868324,127.9140345
케이원모터스(K1모터스),경상남도 거창군 거창읍 소만3길 14-19,개인 및 소비용품 수리업,35.6930382,127.920721
파인뉴학원,경상남도 거창군 거창읍 공수들2길 37,교육 서비스업,35.6875103,127.9019215
파인뉴학원,경상남도 거창군 거창읍 공수들2길 37,교육 서비스업,35.6875045118,127.9019216382
네네치킨 거창점,경상남도 거창군 거창읍 강변로 127,음식점 및 주점업,35.6846339,127.9109004
피자마루,경상남도 거창군 거창읍 중앙로 61,음식점 및 주점업,35.6851907,127.905314
마왕족발 거창점,경상남도 거창군 거창읍 공수들5길 42,음식점 및 주점업,35.6872748,127.9032637
(주)더달콤 농업회사법인,경상남도 거창군 거창읍 정장길 234,소매업; 자동차 제외,35.6700611,127.9188629
텐퍼센트,경상남도 거창군 거창읍 강변로 105-1,음식점 및 주점업,35.6844962,127.9087598
신데렐라 헤어샵,경상남도 거창군 거창읍 중앙로 46,음식점 및 주점업,35.6847116,127.9037274
교촌치킨,경상남도 거창군 거창읍 거열로 197,음식점 및 주점업,35.6911126,127.914985
피자스쿨거창점,경상남도 거창군 거창읍 중앙로 154,음식점 및 주점업,35.6874704,127.9151142
대주사료,경상남도 거창군 거창읍 소만3길 3,도매 및 상품 중개업,35.6939581,127.9199741
가북주유소,경상남도 거창군 가북면 용암로 10,소매업; 자동차 제외,35.7620977,127.993759
페리카나치킨 거창점,경상남도 거창군 거창읍 거열로2길 17,음식점 및 주점업,35.6916403,127.91497
거창정형외과의원,경상남도 거창군 거창읍 거열로 118,보건업,35.6886431,127.9067568
박약국,경상남도 거창군 거창읍 거창대로 57,소매업; 자동차 제외,35.6867194,127.9160168
김경환한의원,경상남도 거창군 거창읍 거창대로 73-1,보건업,35.6881702,127.9154683
헤어바이시크,경상남도 거창군 거창읍 거열로 137,기타 개인 서비스업,35.6893037828,127.9087446065
헤어바이시크,경상남도 거창군 거창읍 거열로 137,기타 개인 서비스업,35.6893037698,127.9087446393
투썸플레이스경남거창점,경상남도 거창군 거창읍 거열로4길 35 투썸플레이스경남거창점,음식점 및 주점업,35.6902927,127.9065556
지니어스,"경상남도 거창군 거창읍 거열로1길 86, 102동 2층 201호(GNG상가)",교육 서비스업,35.6939372,127.9122408
투다리 코아루점,경상남도 거창군 거창읍 강남로 256 107호,음식점 및 주점업,35.687284,127.9246641
황산정가든,경상남도 거창군 위천면 송계로 355-12,음식점 및 주점업,35.7551088,127.8328037
달빛식당,경상남도 거창군 북상면 덕유월성로 1433-7,음식점 및 주점업,35.7643039,127.7423984
청룡car센타,경상남도 거창군 거창읍 강남로 122-1,개인 및 소비용품 수리업,35.6830312,127.9109138
거창수이비인후과의원,경상남도 거창군 거창읍 거열로 116,보건업,35.6886058,127.9065094
센스,경상남도 거창군 거창읍 공수들3길 37,음식점 및 주점업,35.6872373,127.9028701
거창성모안과의원,경상남도 거창군 거창읍 거창대로 52,보건업,35.6863997,127.9167604
카카오토 자동차 정비,경상남도 거창군 거창읍 수남로 2238-1,개인 및 소비용품 수리업,35.6788283813,127.9118983755
거북철물건재상사,경상남도 거창군 마리면 거안로 882,소매업; 자동차 제외,35.6985376,127.8589801
한전사,경상남도 거창군 거창읍 중앙로1길 17,소매업; 자동차 제외,35.6877948293,127.9137925906
라쿵푸 마라탕 (거창점),경상남도 거창군 거창읍 아림로 28,음식점 및 주점업,35.6856552,127.9109602
거창삼성내과의원,경상남도 거창군 거창읍 강변로 177,보건업,35.6861702,127.9161017
현이미용실,경상남도 거창군 거창읍 중앙로 194,기타 개인 서비스업,35.6885337,127.9193976
위천식품,경상남도 거창군 위천면 원학길 367,소매업; 자동차 제외,35.7505778,127.8311979
송정식육식당,경상남도 거창군 거창읍 강남로 100,음식점 및 주점업,35.6829392,127.9084679
고제거창식육식당,경상남도 거창군 고제면 입석2길 13,음식점 및 주점업,35.8139088,127.8721853
와이드앵글거창점,경상남도 거창군 거창읍 거열로 131,소매업; 자동차 제외,35.6892338,127.9081137
출렁다리 식육식당,경상남도 거창군 가조면 지산로 1488-38,음식점 및 주점업,35.7094082,128.0174785
우리의원,경상남도 거창군 거창읍 거창대로 80,보건업,35.6887342,127.9156874
우리의원,경상남도 거창군 거창읍 거창대로 80,보건업,35.6887342452,127.9156871241
동원구이,경상남도 거창군 거창읍 하동3길 1,음식점 및 주점업,35.688343,127.9141004
신떡,경상남도 거창군 거창읍 아림로 24,음식점 및 주점업,35.6852739,127.9110884
홀쇼핑c.j,경상남도 거창군 거창읍 거창대로 77(희성타운),도매 및 상품 중개업,35.6883449,127.9154049
치킨더홈,경상남도 거창군 가조면 지산로 1477,음식점 및 주점업,35.7084345,128.015758
청담,경상남도 거창군 거창읍 거열로9길 147,음식점 및 주점업,35.686993,127.8915408
대구뷔페식당,경상남도 거창군 주상면 주곡로 632,음식점 및 주점업,35.7475929,127.9157364
다우리밥상,경상남도 거창군 위천면 송계로 441,음식점 및 주점업,35.76116,127.8330223
규야,경상남도 거창군 거창읍 공수들1길 57,음식점 및 주점업,35.6870474,127.9008496
골뱅이분식,경상남도 거창군 위천면 원학길 400,음식점 및 주점업,35.7520175,127.8307452
웅양반점,경상남도 거창군 웅양면 웅양로 1425,음식점 및 주점업,35.8045988,127.9178983
국빈미용실,경상남도 거창군 거창읍 거창대로 63,기타 개인 서비스업,35.6872726,127.915806
나팔소리음악교습소,"경상남도 거창군 거창읍 중앙로2길 31, 2층",교육 서비스업,35.6892003,127.9193841
일방통행,경상남도 거창군 거창읍 아림로 18-1,소매업; 자동차 제외,35.6849482,127.9112327
농업회사법인 주식회사 엘비,경상남도 거창군 거창읍 새동네2길 37,음식점 및 주점업,35.6880198,127.9280406
삼육상회,경상남도 거창군 거창읍 시장1길 27,소매업; 자동차 제외,35.6859372,127.9119869
봉자호프,경상남도 거창군 가조면 가조가야로 1088-1,음식점 및 주점업,35.7099511,128.0140241
쌍둥이슈퍼,경상남도 거창군 거창읍 강남로 236,소매업; 자동차 제외,35.6861604,127.9230039
패밀리관광호텔 주식회사,경상남도 거창군 가조면 온천길 108-11,숙박업,35.6989509,128.0254811
Mr.락,경상남도 거창군 거창읍 거창대로 103,음식점 및 주점업,35.6905166,127.914487
더우내,경상남도 거창군 가조면 지산로 1343,음식점 및 주점업,35.6975023,128.0205595
정외과의원,경상남도 거창군 가조면 지산로 1487,보건업,35.7095201622,128.0156825822
정외과의원,경상남도 거창군 가조면 지산로 1487,보건업,35.7095411,128.0156779
마리856,경상남도 거창군 마리면 거안로 856,음식점 및 주점업,35.6990992,127.8568995
별궁식당,경상남도 거창군 위천면 원학길 391,음식점 및 주점업,35.7516076,127.8305105
대성청과,경상남도 거창군 거창읍 시장길 78,소매업; 자동차 제외,35.6865846,127.9148902
아림인테리어,경상남도 거창군 거창읍 거열로 177-1,소매업; 자동차 제외,35.6905428954,127.9130213357
서현다례원,경상남도 거창군 거창읍 중촌2길 98,소매업; 자동차 제외,35.7011667,127.8977454
실로암의원,경상남도 거창군 거창읍 거창대로 100,보건업,35.6903679,127.9151
좋은날헤어,경상남도 거창군 거창읍 강양4길 10(대동신흥빌라),기타 개인 서비스업,35.6899123,127.9179704
반올림음악학원,경상남도 거창군 거창읍 상동5길 16,교육 서비스업,35.6882298,127.9065175
마루옛날통닭,경상남도 거창군 거창읍 거열로3길 33,음식점 및 주점업,35.6929394,127.9160534
카페다락에오르다,경상남도 거창군 거창읍 거열로6길 56-21,음식점 및 주점업,35.6902341,127.9061723
세븐일레븐 거창송정문화점,경상남도 거창군 거창읍 강남로3길 14 (송정문화빌라),소매업; 자동차 제외,35.6823027,127.9077731
깜봉,경상남도 거창군 거창읍 아림로 21-1,소매업; 자동차 제외,35.6849319,127.9108264
굿모닝백화점,경상남도 거창군 거창읍 상동9길 15,소매업; 자동차 제외,35.6847484,127.9063248
담,경상남도 거창군 거창읍 중앙로 100-1,음식점 및 주점업,35.6857404715,127.9095285056
담,경상남도 거창군 거창읍 중앙로 100-1,음식점 및 주점업,35.6857595,127.9096082
동미사,경상남도 거창군 거창읍 시장길 92,소매업; 자동차 제외,35.6869241689,127.9155453762
동미사,경상남도 거창군 거창읍 시장길 92,소매업; 자동차 제외,35.6869242,127.9155457
거창오일뱅크,경상남도 거창군 거창읍 거창대로 10-1,자동차 및 부품 판매업,35.6827494,127.9180748
거창오일뱅크,경상남도 거창군 거창읍 거창대로 10-1,자동차 및 부품 판매업,35.68269309,127.9180819551
홍아이뷰티,경상남도 거창군 거창읍 하동1길 43,기타 개인 서비스업,35.6887439,127.9116786
구움(9umm),경상남도 거창군 거창읍 중앙로 140,음식점 및 주점업,35.6868324,127.9140345
성모치과의원,경상남도 거창군 거창읍 중앙로 122,보건업,35.6865497,127.9118511
디저트39,경상남도 거창군 거창읍 거열로4길 129,음식점 및 주점업,35.6941745,127.9069321
상산가,경상남도 거창군 가조면 의상봉길 662-22,음식점 및 주점업,35.7283114,128.0379287
에그모랑,경상남도 거창군 거창읍 중앙로 71-1,음식점 및 주점업,35.685365,127.9064617
아워플래닛,경상남도 거창군 북상면 계수나무길 574,소매업; 자동차 제외,35.74072,127.7374355
기쁨농원,경상남도 거창군 고제면 원탑선길 36-3,소매업; 자동차 제외,35.8971585,127.8701687
빈체레 스튜디오(vincere studio),경상남도 거창군 거창읍 중앙로 140,교육 서비스업,35.6868324,127.9140345
노마필름,경상남도 거창군 거창읍 중앙로 140,영상ㆍ오디오 기록물 제작 및 배급업,35.6868324,127.9140345
웅양주유소,경상남도 거창군 웅양면 웅양로 1475 웅양주유소,소매업; 자동차 제외,35.8090599,127.9194674
웅양주유소,경상남도 거창군 웅양면 웅양로 1475,소매업; 자동차 제외,35.80905994,127.9194670762
인디헤어,경상남도 거창군 거창읍 아림로1길 16,기타 개인 서비스업,35.6853061922,127.9100611117
대성돼지머리양념,경상남도 거창군 거창읍 상동8길 49,식료품 제조업,35.6860803548,127.9077223332
북부고추떡방앗간,경상남도 거창군 주상면 당대고개길 6,식료품 제조업,35.7500058,127.9142194
거창시장초밥,경상남도 거창군 거창읍 중앙로 140,음식점 및 주점업,35.6868324,127.9140345
JS샌드위치,경상남도 거창군 거창읍 중앙로 140,음식점 및 주점업,35.6868324,127.9140345
사부작,경상남도 거창군 거창읍 중앙로 140,소매업; 자동차 제외,35.6868324,127.9140345
임식당,경상남도 거창군 거창읍 아림로 36-1,음식점 및 주점업,35.6865489,127.9105234
해피영어학원,경상남도 거창군 거창읍 거열로5길 16-11,교육 서비스업,35.6896211238,127.9055018273
더 커틀릿,경상남도 거창군 거창읍 상동길 50-6,음식점 및 주점업,35.6880812,127.9045882
요거프레소 거창점,경상남도 거창군 거창읍 거열로4길 36,음식점 및 주점업,35.6905364,127.9067853
이신건설,경상남도 거창군 거창읍 거열로2길 37-10,종합 건설업,35.6923879,127.9143246
아이러브피아노 음악학원,경상남도 거창군 거창읍 거열로5길 10-3,교육 서비스업,35.6892299,127.9060661
종합약국,경상남도 거창군 거창읍 중앙로 163-6,소매업; 자동차 제외,35.6881716,127.9162146
주상혜수아식당,경상남도 거창군 주상면 도평1길 45 1층,음식점 및 주점업,35.7486498,127.9146318
푸른주유소,경상남도 거창군 마리면 거안로 659,소매업; 자동차 제외,35.6880091,127.8430329
솔보떡방앗간,경상남도 거창군 거창읍 강남로1길 110,식료품 제조업,35.6824009,127.9066232
땅스부대찌개 거창시장점,경상남도 거창군 거창읍 중앙로 140,식료품 제조업,35.6868324,127.9140345
더올레,경상남도 거창군 가조면 마상4길 90,음식점 및 주점업,35.7098626,128.0147381
베키즈,경상남도 거창군 거창읍 시장길 13,소매업; 자동차 제외,35.6857841,127.9114639
아림유도관,경상남도 거창군 거창읍 강남로 266(거창코아루에듀시티),교육 서비스업,35.6872339,127.9262853
김수경메이크업하우스,경상남도 거창군 거창읍 공수들5길 54,기타 개인 서비스업,35.6878523,127.9031741
더원수학(교습소),경상남도 거창군 거창읍 상동7길 47-4,교육 서비스업,35.6877009787,127.9070453405
미야뷰티,경상남도 거창군 거창읍 강남로1길 90,기타 개인 서비스업,35.6819621,127.9056372
귀뚜라미 거창 대리점,경상남도 거창군 거창읍 중앙로 10,소매업; 자동차 제외,35.6844246834,127.899725928
귀뚜라미 거창 대리점,경상남도 거창군 거창읍 중앙로 10,소매업; 자동차 제외,35.6844246849,127.8997259059
거창태백축산,경상남도 거창군 거창읍 강변로 171-2,도매 및 상품 중개업,35.6859698,127.9156947
상하이 체형관리,경상남도 거창군 거창읍 거창대로 82-1,소매업; 자동차 제외,35.6889698,127.915637
수승대 건강원,"경상남도 거창군 위천면 장터길 54, 1층",소매업; 자동차 제외,35.7507833,127.832387
썬모텔,경상남도 거창군 가조면 의상봉길 45-11(썬모텔),숙박업,35.7085809,128.0180963
썬모텔,경상남도 거창군 가조면 의상봉길 45-11 (썬모텔),숙박업,35.708580893,128.0180960673
봉산식당,경상남도 거창군 고제면 하구송길 1,음식점 및 주점업,35.8620668,127.8801139
60계거창점,경상남도 거창군 거창읍 상동2길 48,음식점 및 주점업,35.6875117,127.9078293
59쌀피자거창점,경상남도 거창군 거창읍 아림로 62,음식점 및 주점업,35.6885888,127.9096561
영남쌈밥,경상남도 거창군 거창읍 강변로8길 14,음식점 및 주점업,35.6847079,127.9094577
프란(fran),경상남도 거창군 거창읍 거열로6길 68-4,소매업; 자동차 제외,35.6903923,127.9061297
MS수학교습소,경상남도 거창군 거창읍 송정2길 33(거창푸르지오),교육 서비스업,35.6818692,127.9001844
보보수학,경상남도 거창군 거창읍 거열로4길 144-21,교육 서비스업,35.695331,127.9075142
남경수산,경상남도 거창군 거창읍 강변로 197,소매업; 자동차 제외,35.6869684,127.9181002
거창뼈다귀,"경상남도 거창군 거창읍 강변로 241, 101호",음식점 및 주점업,35.688516,127.9226557
팔공산오리,경상남도 거창군 거창읍 창동로 81,음식점 및 주점업,35.6845613,127.9216041
코아루횟집,경상남도 거창군 거창읍 강남로 260-6,음식점 및 주점업,35.6872857,127.9251411
햇참푸드,경남 거창군 거창읍 죽전4길 186,식료품 제조업,35.6974547,127.911066
태하매점,경상남도 거창군 거창읍 개화1길 216,소매업; 자동차 제외,35.7055508,127.9070451
나리안 뷰티,경상남도 거창군 거창읍 거열로1길 100-26,기타 개인 서비스업,35.6945351,127.9115333
두레한정식,경상남도 거창군 거창읍 공수들6길 8-10,음식점 및 주점업,35.6865302598,127.9041530822
두레한정식,경상남도 거창군 거창읍 공수들6길 8-10,음식점 및 주점업,35.6865302,127.9041534
이레샵,경상남도 거창군 가조면 가조가야로 1110-13,소매업; 자동차 제외,35.7100198,128.0165936
홍홍사과,경남 거창군 웅양면 웅양로 2166-152,농업,35.8620354,127.9144501
산골이모들,경상남도 거창군 거창읍 중앙로 31-5,소매업; 자동차 제외,35.6848353,127.9020715
순살만공격 거창센터점,경상남도 거창군 거창읍 강변로 291,음식점 및 주점업,35.6913929,127.9253914
맘스터치,경남 거창군 거창읍 아림로 32-1,음식점 및 주점업,35.6860798,127.9108123
장군갈비,경상남도 거창군 거창읍 공수들7길 30,음식점 및 주점업,35.6858844,127.9014814
대평건강원,경상남도 거창군 거창읍 거창대로 26,음식점 및 주점업,35.6840924,127.9176192
펫마트,경상남도 거창군 거창읍 중앙로 30-1,소매업; 자동차 제외,35.6844514,127.9019988
웰하스농업회사법인주식회사,경남 거창군 마리면 고창길 5-12,소매업; 자동차 제외,35.6861947,127.8739335
거창중앙점(지센),경상남도 거창군 거창읍 중앙로 140,소매업; 자동차 제외,35.6868324,127.9140345
사보리은행,경남 거창군 웅양면 웅양로 2313,식료품 제조업,35.8724183043,127.9211244981
흠뻑,경상남도 거창군 거창읍 시장1길 19,음식점 및 주점업,35.685709,127.9121407
차이나,경상남도 거창군 거창읍 강변로9길 28,음식점 및 주점업,35.6880448,127.9181629
마이다스온천모텔,경남 거창군 가조면 온천길 44,숙박업,35.6961161,128.0233768
마이다스온천모텔,경남 거창군 가조면 온천길 44,숙박업,35.6961159146,128.0233766341
짬모텔,경남 거창군 가조면 온천길 50,숙박업,35.6961062,128.0237302
이은미헤어라인,경상남도 거창군 거창읍 하동1길 5,기타 개인 서비스업,35.6869799,127.9119335
현대오일뱅크 화성주유소,경남 거창군 거창읍 중앙로1길 99,소매업; 자동차 제외,35.6905791,127.9168507
종로종합장식,경상남도 거창군 거창읍 거열로 171-1,소매업; 자동차 제외,35.690408,127.9123785
종로종합장식,경상남도 거창군 거창읍 거열로 171-1,소매업; 자동차 제외,35.6902800156,127.9123257472
골프존파크 거창부경스크린점,경남 거창군 거창읍 공수들1길 77,스포츠 및 오락관련 서비스업,35.6878101,127.9015426
제주은갈치,경남 거창군 거창읍 거열로 159-1,음식점 및 주점업,35.6900035,127.9111875
나경미용실,경상남도 거창군 거창읍 상동7길 15-18,기타 개인 서비스업,35.688061,127.9052907
수준이다른치킨-거창센터점,경상남도 거창군 거창읍 강변로 291,음식점 및 주점업,35.6913929,127.9253914
송계계곡,경남 거창군 북상면 당산말길 20-20,숙박업,35.827955,127.8082272
헤럴드여행사,경남 거창군 거창읍 아림로 60,사업 지원 서비스업,35.6883859767,127.9097441304
헤럴드여행사,경남 거창군 거창읍 아림로 60,사업 지원 서비스업,35.6883289268,127.9097204921
대원피복,경남 거창군 거창읍 시장길 64,소매업; 자동차 제외,35.6863466,127.914171
브이모텔,경남 거창군 거창읍 대평3길 72-8,숙박업,35.685826,127.9209483
거창백세식품,경남 거창군 북상면 치내길 65-4,소매업; 자동차 제외,35.7812163,127.8203543
세종종합장식,경남 거창군 거창읍 거열로6길 68-3,소매업; 자동차 제외,35.6905161744,127.906396627
브릭스영어교습소,경남 거창군 거창읍 상동1길 45,교육 서비스업,35.686861,127.9067037
오유아,경상남도 거창군 거창읍 송정1길 95,음식점 및 주점업,35.6807286856,127.9021092592
다짐,경상남도 거창군 거창읍 대평6길 10,교육 서비스업,35.6836341,127.918004
책먹는아이들,경상남도 거창군 거창읍 거열로5길 36,교육 서비스업,35.6896682,127.9052784
멈머 mum muh,경남 거창군 거창읍 송정2길 34-4,기타 개인 서비스업,35.6813769,127.9014766
비우고 담아서,경상남도 거창군 주상면 희랑1길 13-19,비금속 광물제품 제조업,35.7584458,127.9289876
비우고 담아서,경상남도 거창군 주상면 희랑1길 13-19,비금속 광물제품 제조업,35.7584458473,127.9289875427
시장축산,경상남도 거창군 거창읍 시장길 64-2,소매업; 자동차 제외,35.6863367,127.9142511
홍콩다방 거창점,경상남도 거창군 거창읍 아림로 36-1,음식점 및 주점업,35.6865489,127.9105234
술술수학,경상남도 거창군 거창읍 거열로1길 81(지엔지씨티),교육 서비스업,35.6933594,127.9127157
희헤어,경상남도 거창군 거창읍 상동1길 45(웰리스아파트),기타 개인 서비스업,35.686861,127.9067037
청운푸드,경상남도 거창군 가조면 가조가야로 1083,도매 및 상품 중개업,35.710074,128.013417
동네커피,경상남도 거창군 거창읍 강남로 108,음식점 및 주점업,35.6829211,127.9092791
엑스엑스,경상남도 거창군 거창읍 아림로 23-1,음식점 및 주점업,35.6853331,127.9107666
퐁당퐁당,경상남도 거창군 거창읍 송정3길 27-10,음식점 및 주점업,35.6818936,127.902706
마지랑카페,경상남도 거창군 위천면 원학길 347,음식점 및 주점업,35.7498287,127.831863
정식당,경상남도 거창군 위천면 원학길 356,음식점 및 주점업,35.750258,127.8317456
스터디카페독서실,경상남도 거창군 거창읍 거열로 190-1,"창작, 예술 및 여가관련 서비스업",35.6904653,127.9143603
이룸뷰티(irum beauty),경상남도 거창군 거창읍 중앙로 140,기타 개인 서비스업,35.6868324,127.9140345
오늘쉐프,경상남도 거창군 거창읍 강남로 266(거창코아루에듀시티),소매업; 자동차 제외,35.6872339,127.9262853
거창월성우주창의과학관,경상남도 거창군 북상면 덕유월성로 1312-96,"창작, 예술 및 여가관련 서비스업",35.7619592,127.7254994
주식회사꽃다움,경남 거창군 북상면 소정신기길 86-8,농업,35.8134376,127.8093483
라화쿵부,경상남도 거창군 거창읍 시장1길 18,음식점 및 주점업,35.6856601,127.9124168
태명수학,경상남도 거창군 거창읍 송정2길 33(거창푸르지오),교육 서비스업,35.6818692,127.9001844
페리카나치킨거창점,경상남도 거창군 거창읍 거열로1길 43,음식점 및 주점업,35.6925979499,127.9137999838
페리카나치킨거창점,경상남도 거창군 거창읍 거열로1길 43,음식점 및 주점업,35.6925974,127.9138003
더슬로우펜션,경상남도 거창군 남하면 조금실길 509,숙박업,35.657835,128.0143029
Street 33,경상남도 거창군 거창읍 상동6길 33,음식점 및 주점업,35.6887182,127.9092711
와따종합어시장,경상남도 거창군 거창읍 거열로3길 10(대동리 판타블 아파트),소매업; 자동차 제외,35.6919682,127.9168207
카페금원산갤러리,경상남도 거창군 위천면 덕거길 39,음식점 및 주점업,35.7445918,127.8170149
옛날수제비,경상남도 거창군 거창읍 하동1길 38,음식점 및 주점업,35.6885055,127.9118963
최농부,경상남도 거창군 고제면 원기길 102,농업,35.8917608,127.8699406
카페 사이로,경상남도 거창군 거창읍 상동2길 42,음식점 및 주점업,35.6872931,127.9079355
신동미헤어칼라,경남 거창군 거창읍 거창대로 32,기타 개인 서비스업,35.6845267107,127.9174544907
신동미헤어칼라,경남 거창군 거창읍 거창대로 32,기타 개인 서비스업,35.6845361,127.9174613
수승대마트,경남 거창군 위천면 원학길 342,소매업; 자동차 제외,35.7498977,127.8322598
즉석김밥 맘,경상남도 거창군 거창읍 아림로 21,음식점 및 주점업,35.6850367,127.9108255
정담다,경상남도 거창군 위천면 금원산길 135,도매 및 상품 중개업,35.7443496,127.8196257
솝포유앤버블티,경상남도 거창군 거창읍 거열로6길 50,음식점 및 주점업,35.6898637,127.9054834
GS25 거창승강기밸리점,경상남도 거창군 남상면 승강기길 58,소매업; 자동차 제외,35.653469657,127.9305685583
GS25 거창승강기밸리점,경상남도 거창군 남상면 승강기길 58,소매업; 자동차 제외,35.6535048,127.9304466
코리엔탈깻잎칩킨,경상남도 거창군 거창읍 거열로 148,음식점 및 주점업,35.6893514,127.9100459
포라리,경상남도 거창군 거창읍 중앙로 150-1,도매 및 상품 중개업,35.6873887,127.9147457
"24시무인 아이스크림,슬러시할인매장",경상남도 거창군 거창읍 거열로7길 25,음식점 및 주점업,35.6893798,127.9020328
좋은구제,경상남도 거창군 거창읍 중앙로 140,소매업; 자동차 제외,35.6868324,127.9140345
별보석,경상남도 거창군 거창읍 중앙로 180-1,소매업; 자동차 제외,35.6881275,127.9178043
복돈우 거창함흥냉면,경상남도 거창군 거창읍 공수들7길 62,음식점 및 주점업,35.6860267,127.9031618
돈까스회관 거창점,경상남도 거창군 거창읍 상동7길 33,음식점 및 주점업,35.6875832,127.9062512
마리맛집,경상남도 거창군 마리면 거안로 872-2,음식점 및 주점업,35.6989888,127.8582397
대관령코다리찜,경상남도 거창군 거창읍 송정2길 34-4,음식점 및 주점업,35.6813769,127.9014766
서인헤어,경상남도 거창군 거창읍 공수들3길 13,기타 개인 서비스업,35.6866475,127.9017082
서인헤어,경상남도 거창군 거창읍 공수들3길 13,기타 개인 서비스업,35.6866474918,127.9017082489
셀독24 스터디카페,경상남도 거창군 거창읍 거열로7길 27,"창작, 예술 및 여가관련 서비스업",35.6893507,127.9019998
페르마수학아림학원,경남 거창군 거창읍 상동7길 31-14,교육 서비스업,35.6879674361,127.9061718156
두바이모텔,경남 거창군 거창읍 중앙로 154-10,숙박업,35.6872658,127.9152508
엘비이동준제과제빵커피학원,경상남도 거창군 거창읍 아림로 30,교육 서비스업,35.6857795,127.9108981
효창다과,경상남도 거창군 거창읍 중앙로1길 75-5,음식점 및 주점업,35.6898919,127.9155629
파리바게뜨 거창사과농협하나로점,경상남도 거창군 거창읍 수남로 2241,음식점 및 주점업,35.6788379,127.9112966
삼성세탁소,경상남도 거창군 거창읍 소만2길 62(소만주공아파트),기타 개인 서비스업,35.6947344,127.9229163
피자헛 거창점,경상남도 거창군 거창읍 상동길 42,음식점 및 주점업,35.6874834,127.9045532
철인7호치킨 거창점,경상남도 거창군 거창읍 중앙로 126,음식점 및 주점업,35.6866762,127.9121687
코너커피,경남 거창군 가조면 가조가야로 1110-13,음식점 및 주점업,35.7100198,128.0165936
신기푸드,경상남도 거창군 거창읍 중앙로 140,소매업; 자동차 제외,35.6868324,127.9140345
신플라워&커피,경남 거창군 거창읍 송정2길 34-4,음식점 및 주점업,35.6813769,127.9014766
배떡 거창점,경상남도 거창군 거창읍 중앙로1길 28,음식점 및 주점업,35.687974,127.9143546
빵드밀,경남 거창군 위천면 원학길 345,음식점 및 주점업,35.749684,127.8321229
명성아구찜,경상남도 거창군 거창읍 중앙로1길 95,음식점 및 주점업,35.6903884,127.9168044
일랑일랑,경남 거창군 거창읍 송정2길 33,소매업; 자동차 제외,35.6818692,127.9001844
명성판넬 (명성태양광발절소),경상남도 거창군 거창읍 거함대로 3428,금속 가공제품 제조업; 기계 및 가구 제외,35.6725342,127.9332204
만수무강,경상남도 거창군 거창읍 거열로4길 7-13,음식점 및 주점업,35.6895772,127.9067761
하이영어도서관영어교습소,경남 거창군 거창읍 상동7길 23-9,교육 서비스업,35.6876955,127.905519
유즈요가앤폴스튜디오,경상남도 거창군 거창읍 중앙로1길 1,교육 서비스업,35.6874702,127.9131227
청춘감성쌀핫도그 (거창점),경상남도 거창군 거창읍 거열로 126,음식점 및 주점업,35.6888348,127.9076095
휴앤인힐링팜,경남 거창군 가조면 가조가야로 826-21,농업,35.7133587285,127.9873388687
휴앤인힐링팜,경남 거창군 가조면 가조가야로 826-21,농업,35.7133443,127.9873524
채움에프앤비 농업회사법인 주식회사,경남 거창군 가조면 석강3길 112,농업,35.6846772214,128.0268689965
러빈데이,경남 거창군 거창읍 죽전2길 10,교육 서비스업,35.6900098166,127.9104988298
러빈데이,경남 거창군 거창읍 죽전2길 10,교육 서비스업,35.6900098,127.9104991
몽드에스떼,경상남도 거창군 거창읍 송정9길 38,기타 개인 서비스업,35.6810239,127.9083557
몽드에스떼,경상남도 거창군 거창읍 송정9길 38,기타 개인 서비스업,35.6810247959,127.9083562474
불소원 거창점,경남 거창군 거창읍 강남로1길 16,소매업; 자동차 제외,35.6821839,127.9015945
명의당한의원,경남 거창군 거창읍 강남로 208,보건업,35.6857647,127.9196989
운로,경상남도 거창군 거창읍 송정7길 80,기타 개인 서비스업,35.6806083,127.9101991
이동준수제베이커리,경상남도 거창군 거창읍 공수들1길 87,음식점 및 주점업,35.6879449,127.9018792
피에이티(PAT),경남 거창군 거창읍 중앙로 156-1,도매 및 상품 중개업,35.6875328,127.9153725
거창대로주유소,경남 거창군 거창읍 거열로 198,소매업; 자동차 제외,35.6907581,127.9153767
가야산농원,경남 거창군 가북면 개금길 161-60,농업,35.8300671708,128.0695076399
가야산농원,경남 거창군 가북면 개금길 161-60,농업,35.8301172,128.0695033
너와,경상남도 거창군 거창읍 거열로 148,음식점 및 주점업,35.6893514,127.9100459
라인헤어,경상남도 거창군 거창읍 시장2길 12,기타 개인 서비스업,35.685742,127.9137075
라인헤어,경상남도 거창군 거창읍 시장2길 12,기타 개인 서비스업,35.6857415928,127.9137074658
털보천지양삼계탕,경상남도 거창군 거창읍 강남로 50,음식점 및 주점업,35.6824124,127.9028303
세븐일레븐 거창드림점,경상남도 거창군 거창읍 장팔길 75,소매업; 자동차 제외,35.6772831,127.9086394
세븐일레븐 거창가지점,경상남도 거창군 거창읍 거열로4길 161,소매업; 자동차 제외,35.6954127,127.9059215
송천휴게소,경남 거창군 주상면 웅양로 1124,소매업; 자동차 제외,35.7792672,127.9164184
온코너카페,경남 거창군 거창읍 상동7길 64,음식점 및 주점업,35.6876321,127.9078338
갠지스휘트니스사우나,경상남도 거창군 거창읍 공수들1길 24-18,기타 개인 서비스업,35.685423,127.9011347
GS25 거창중앙점,경상남도 거창군 거창읍 거열로1길 86 (지엔지 4차),소매업; 자동차 제외,35.6939372,127.9122408
신데렐라헤어샵,경남 거창군 거창읍 중앙로 46,기타 개인 서비스업,35.6847110327,127.9037161683
MASIRA(마시라) Coffee,경상남도 거창군 거창읍 거열로1길 86 (지엔지 4차),음식점 및 주점업,35.6939372,127.9122408
달,경상남도 거창군 거창읍 하동1길 39,음식점 및 주점업,35.6884295,127.9116997
백두산약국,경상남도 거창군 거창읍 거창대로 52,소매업; 자동차 제외,35.6863997,127.9167604
지유명차,경상남도 거창군 거창읍 공수들7길 85,음식점 및 주점업,35.6864592,127.9045492
호야식당,경상남도 거창군 거창읍 거열로 239-1,음식점 및 주점업,35.6934321,127.9184248
호야식당,경상남도 거창군 거창읍 상동1길 57,음식점 및 주점업,35.686884,127.9076665
크린업24시셀프빨래방(거창점),경상남도 거창군 거창읍 아림로 61,기타 개인 서비스업,35.6884915491,127.9093933651
몽실이참숯화로,경상남도 거창군 거창읍 공수들7길 30,음식점 및 주점업,35.6858844,127.9014814
유가네닭갈비 거창점,경상남도 거창군 거창읍 중앙로 75,음식점 및 주점업,35.6854634,127.9069028
도희네분식,경상남도 거창군 거창읍 공수들4길 37,음식점 및 주점업,35.6877897,127.9025129
임실치즈피자,경상남도 거창군 거창읍 아림로1길 9,음식점 및 주점업,35.6854238,127.910481
본죽 경남거창점,경상남도 거창군 거창읍 중앙로 152,음식점 및 주점업,35.6874004,127.9149072
충만한 공방,경상남도 거창군 거창읍 상동7길 48-3,소매업; 자동차 제외,35.687405,127.9070743
거창호박꿀고추장화로구이,경상남도 거창군 가조면 온천길 156,음식점 및 주점업,35.6992164,128.0227404
라임광고,경상남도 거창군 거창읍 강남로 152,기타 제품 제조업,35.6838049343,127.9139228394
장수복집,경상남도 거창군 거창읍 중산길 12-10,음식점 및 주점업,35.6731153,127.9099952
초록마을 거창상림점,경상남도 거창군 거창읍 공수들3길 47,소매업; 자동차 제외,35.6872844,127.9033937
미르,경상남도 거창군 거창읍 아림로 32-1,음식점 및 주점업,35.6860798,127.9108123
맑은눈안경,경상남도 거창군 거창읍 거열로 125,소매업; 자동차 제외,35.6891005,127.9075465
곽가네식당,경상남도 거창군 웅양면 원촌3길 19,음식점 및 주점업,35.8050589,127.917401
지리산옻닭,경상남도 거창군 거창읍 상동2길 21,음식점 및 주점업,35.686465,127.9078498
대진오토바,경상남도 거창군 거창읍 거열로 174-1,개인 및 소비용품 수리업,35.6901115727,127.9128176768
옥성가든,경상남도 거창군 웅양면 웅양로 1428,음식점 및 주점업,35.8047924,127.9183563
신원식육,경상남도 거창군 신원면 신차로 3068,음식점 및 주점업,35.5678826,127.9258733
GS칼텍스 산장주유소,경상남도 거창군 고제면 빼재로 1912,소매업; 자동차 제외,35.8504867,127.8357207
헤어터치,경상남도 거창군 거창읍 거창대로 26,기타 개인 서비스업,35.6840924,127.9176192
가나공인중개사사무소,경남 거창군 거창읍 거창대로 76,부동산업,35.6883104744,127.9158148025
신원치킨앤족발,경상남도 거창군 신원면 신차로 3063,음식점 및 주점업,35.5674769,127.9254434
킹할인마트,경상남도 거창군 위천면 원학길 345,소매업; 자동차 제외,35.749684,127.8321229
곰숙이네,경상남도 거창군 거창읍 중앙로 140,음식점 및 주점업,35.6868324,127.9140345
성림포목,경상남도 거창군 거창읍 중앙로 140,소매업; 자동차 제외,35.6868324,127.9140345
레모네이드,경상남도 거창군 거창읍 중앙로 140,소매업; 자동차 제외,35.6868324,127.9140345
삼시3끼 엄마반찬,경상남도 거창군 거창읍 중앙로 140,소매업; 자동차 제외,35.6868324,127.9140345
대성보세,경상남도 거창군 거창읍 중앙로 140,소매업; 자동차 제외,35.6868324,127.9140345
은진유통,경상남도 거창군 거창읍 시장길 72,소매업; 자동차 제외,35.6864361,127.9145638
양우사,경상남도 거창군 거창읍 중앙로 140,소매업; 자동차 제외,35.6868324,127.9140345
거창미용실,경상남도 거창군 거창읍 중앙로 140,기타 개인 서비스업,35.6868324,127.9140345
원해장국,경상남도 거창군 거창읍 중앙로 140,음식점 및 주점업,35.6868324,127.9140345
화산신발,경상남도 거창군 거창읍 중앙로 140,소매업; 자동차 제외,35.6868324,127.9140345
태백상회,경상남도 거창군 거창읍 시장2길 15,소매업; 자동차 제외,35.6858556,127.9133871
정운분식,경상남도 거창군 거창읍 중앙로 140,음식점 및 주점업,35.6868324,127.9140345
럭키가방,경상남도 거창군 거창읍 중앙로 140,소매업; 자동차 제외,35.6868324,127.9140345
22번상회,경상남도 거창군 거창읍 중앙로 140,소매업; 자동차 제외,35.6868324,127.9140345
천일고무상사,경상남도 거창군 거창읍 중앙로 140,소매업; 자동차 제외,35.6868324,127.9140345
돼지한근 소한짝,경상남도 거창군 거창읍 중앙로 140,소매업; 자동차 제외,35.6868324,127.9140345
백일상회,경상남도 거창군 거창읍 중앙로 140,소매업; 자동차 제외,35.6868324,127.9140345
진미떡집,경상남도 거창군 거창읍 중앙로 140,식료품 제조업,35.6868324,127.9140345
태웅식품,경상남도 거창군 거창읍 중앙로 140,식료품 제조업,35.6868324,127.9140345
카페아라,경상남도 거창군 거창읍 송정10길 29,음식점 및 주점업,35.6814639,127.9078295
거창이씨씨(ECC)어학원,경상남도 거창군 거창읍 거열로6길 68-8,교육 서비스업,35.6902847,127.9062854
제일레코드사,경상남도 거창군 거창읍 중앙로 128,소매업; 자동차 제외,35.6867456,127.9123111
폴햄 거창점,경상남도 거창군 거창읍 중앙로 118,소매업; 자동차 제외,35.6864379,127.9113409
남상상회,경상남도 거창군 거창읍 중앙로 140 상설시장,소매업; 자동차 제외,35.6868324,127.9140345
한국의류,경상남도 거창군 거창읍 중앙로 140 상설시장,소매업; 자동차 제외,35.6868324,127.9140345
정가네떡집,경상남도 거창군 거창읍 중앙로 140 상설시장,식료품 제조업,35.6868324,127.9140345
아가방,경상남도 거창군 거창읍 중앙로 140 상설시장,소매업; 자동차 제외,35.6868324,127.9140345
대구해물,경상남도 거창군 거창읍 중앙로 140 상설시장,소매업; 자동차 제외,35.6868324,127.9140345
장수상회,경상남도 거창군 거창읍 중앙로 140 상설시장,소매업; 자동차 제외,35.6868324,127.9140345
시장고추방앗간,경상남도 거창군 거창읍 중앙로 140 상설시장,식료품 제조업,35.6868324,127.9140345
장팔리김집,경상남도 거창군 거창읍 중앙로 140 상설시장,식료품 제조업,35.6868324,127.9140345
정훈청과,경상남도 거창군 거창읍 중앙로 141,소매업; 자동차 제외,35.6873528,127.9136457
만물야채상회,경상남도 거창군 거창읍 중앙로 140 상설시장,소매업; 자동차 제외,35.6868324,127.9140345
황헌정헤어샵,경상남도 거창군 거창읍 아림로 32,기타 개인 서비스업,35.6859498,127.9108032
주영식당,경상남도 거창군 거창읍 중앙로 140,음식점 및 주점업,35.6868324,127.9140345
용주분식,경상남도 거창군 거창읍 중앙로 140,음식점 및 주점업,35.6868324,127.9140345
귀빈반찬,경상남도 거창군 거창읍 중앙로 140,식료품 제조업,35.6868324,127.9140345
동기식당,경상남도 거창군 거창읍 중앙로 140,음식점 및 주점업,35.6868324,127.9140345
디즈니골프,경상남도 거창군 거창읍 중앙로 140,소매업; 자동차 제외,35.6868324,127.9140345
현대이불,경상남도 거창군 거창읍 중앙로 140,소매업; 자동차 제외,35.6868324,127.9140345
아름식당,경상남도 거창군 거창읍 중앙로 140,음식점 및 주점업,35.6868324,127.9140345
성진상회,경상남도 거창군 거창읍 중앙로 140,소매업; 자동차 제외,35.6868324,127.9140345
대구상회,경상남도 거창군 거창읍 중앙로 140,소매업; 자동차 제외,35.6868324,127.9140345
삼성신발상회,경상남도 거창군 거창읍 중앙로 140,소매업; 자동차 제외,35.6868324,127.9140345
시장악세사리,경상남도 거창군 거창읍 중앙로 140,소매업; 자동차 제외,35.6868324,127.9140345
진양품,경상남도 거창군 거창읍 중앙로 140,소매업; 자동차 제외,35.6868324,127.9140345
떡머슴,경상남도 거창군 거창읍 중앙로 140,식료품 제조업,35.6868324,127.9140345
정아식당,경상남도 거창군 거창읍 중앙로 140,음식점 및 주점업,35.6868324,127.9140345
형제상회,경상남도 거창군 거창읍 중앙로 140,소매업; 자동차 제외,35.6868324,127.9140345
평화상회,경상남도 거창군 거창읍 중앙로 140,소매업; 자동차 제외,35.6868324,127.9140345
영진식당,경상남도 거창군 거창읍 중앙로 140,음식점 및 주점업,35.6868324,127.9140345
조광한복,경상남도 거창군 거창읍 중앙로 140,소매업; 자동차 제외,35.6868324,127.9140345
대영사,경상남도 거창군 거창읍 강변로 163-1,기타 제품 제조업,35.6858362,127.9147369
한마당노래방,경상남도 거창군 거창읍 아림로 20,스포츠 및 오락관련 서비스업,35.6850277,127.9112827
모꼬지,경상남도 거창군 거창읍 강변로 199,음식점 및 주점업,35.6869641,127.9182983
모닝글로리 거창점,경상남도 거창군 거창읍 아림로 49,소매업; 자동차 제외,35.6874666,127.9098343
거창토피어리 꽃방,경상남도 거창군 거창읍 하동1길 63,소매업; 자동차 제외,35.6895898,127.9114924
기독교백화점,경상남도 거창군 거창읍 하동1길 63,소매업; 자동차 제외,35.6895898,127.9114924
㈜거창주방,경남 거창군 거창읍 송정4길 5,소매업; 자동차 제외,35.6803456,127.9019009
시장식품,경상남도 거창군 가조면 가조가야로 1116-5,소매업; 자동차 제외,35.710029,128.0169382
흑돈,경상남도 거창군 거창읍 공수들1길 56,음식점 및 주점업,35.6869613,127.901136
이니스프리,경상남도 거창군 거창읍 중앙로 129-2,소매업; 자동차 제외,35.687035794,127.9124866841
라이라이,경상남도 거창군 거창읍 중앙로 80,음식점 및 주점업,35.6852228,127.907408
오성,경상남도 거창군 거창읍 중앙로 184,창고 및 운송관련 서비스업,35.6881866,127.9183705
오에스티,경상남도 거창군 거창읍 중앙로 115-1,소매업; 자동차 제외,35.6866234,127.9110058
금원산 산림자원 관리소,경상남도 거창군 위천면 금원산길 412,부동산업,35.7314457555,127.7978769291
THE303,경상남도 거창군 거창읍 거창대로 77,음식점 및 주점업,35.6883449,127.9154049
하나로왕갈비마트,경상남도 거창군 거창읍 중앙로 192,음식점 및 주점업,35.6884339,127.9192222
올리브,경상남도 거창군 거창읍 중앙로 140,소매업; 자동차 제외,35.6868324,127.9140345
창성그릇백화점,경상남도 거창군 거창읍 중앙로 140,소매업; 자동차 제외,35.6868324,127.9140345
뚜레쥬르 거창아림점,경상남도 거창군 거창읍 거열로 98,음식점 및 주점업,35.6883663,127.9046361
제일두부,경상남도 거창군 거창읍 중앙로 140,식료품 제조업,35.6868324,127.9140345
진미식당,경상남도 거창군 거창읍 중앙로 140,음식점 및 주점업,35.6868324,127.9140345
핑크아트,경상남도 거창군 거창읍 중앙로 140,소매업; 자동차 제외,35.6868324,127.9140345
우먼로드,경상남도 거창군 거창읍 시장길 47,소매업; 자동차 제외,35.6863154,127.9133335
오경부침개마을,경상남도 거창군 거창읍 중앙로 140 상설시장,음식점 및 주점업,35.6868324,127.9140345
명가축산,경상남도 거창군 거창읍 중앙로 140 상설시장,소매업; 자동차 제외,35.6868324,127.9140345
풍년철물,경상남도 거창군 거창읍 중앙로 140 상설시장,소매업; 자동차 제외,35.6868324,127.9140345
명인손만두찐빵,경상남도 거창군 거창읍 중앙로 140 상설시장,음식점 및 주점업,35.6868324,127.9140345
거창축산물공판장,경상남도 거창군 거창읍 중앙로 140 상설시장,소매업; 자동차 제외,35.6868324,127.9140345
야시골목,경상남도 거창군 거창읍 중앙로 140 상설시장,소매업; 자동차 제외,35.6868324,127.9140345
광명축산,경상남도 거창군 거창읍 중앙로 140 상설시장,소매업; 자동차 제외,35.6868324,127.9140345
시민방앗간,경상남도 거창군 거창읍 중앙로 140 상설시장,식료품 제조업,35.6868324,127.9140345
주한식당,경상남도 거창군 거창읍 중앙로 140,음식점 및 주점업,35.6868324,127.9140345
(주)레드페이스 거창점,경상남도 거창군 거창읍 거창대로 82,소매업; 자동차 제외,35.6888136,127.9156546
이안정보통신,경상남도 거창군 거창읍 거열로 178-1,소매업; 자동차 제외,35.6901936,127.9132305
싱싱수산,경상남도 거창군 거창읍 중앙로 140,소매업; 자동차 제외,35.6868324,127.9140345
대구분식,경상남도 거창군 거창읍 중앙로 140,음식점 및 주점업,35.6868324,127.9140345
신광상회,경상남도 거창군 거창읍 중앙로 140,소매업; 자동차 제외,35.6868324,127.9140345
거성상회,경상남도 거창군 거창읍 중앙로 140,소매업; 자동차 제외,35.6868324,127.9140345
물망초수예사,경상남도 거창군 거창읍 중앙로 140,소매업; 자동차 제외,35.6868324,127.9140345
거창냉동,경상남도 거창군 거창읍 중앙로 140,소매업; 자동차 제외,35.6868324,127.9140345
정한분식,경상남도 거창군 거창읍 중앙로 140,음식점 및 주점업,35.6868324,127.9140345
와우쿡방,경상남도 거창군 거창읍 중앙로 140,음식점 및 주점업,35.6868324,127.9140345
비씨(BC)800,경상남도 거창군 거창읍 아림로 36-1,음식점 및 주점업,35.6865489,127.9105234
씨에스냉동설비,경상남도 거창군 거창읍 거열로 148,소매업; 자동차 제외,35.6893514,127.9100459
다인식당,경상남도 거창군 거창읍 중앙로 140,음식점 및 주점업,35.6868324,127.9140345
금수이불상회,경상남도 거창군 거창읍 중앙로 140,소매업; 자동차 제외,35.6868324,127.9140345
신승야식,경상남도 거창군 거창읍 아림로1길 10-1,음식점 및 주점업,35.6853875,127.9103392
모이몰른,경상남도 거창군 거창읍 중앙로 140,소매업; 자동차 제외,35.6868324,127.9140345
커피플라워봄날,경상남도 거창군 거창읍 강변로 127,음식점 및 주점업,35.6846339,127.9109004
풀전기,경상남도 거창군 거창읍 강변로 113,소매업; 자동차 제외,35.6843827,127.9094145
대성약국,경상남도 거창군 거창읍 중앙로 96,소매업; 자동차 제외,35.6855994,127.9091541
옥이식당,경상남도 거창군 거창읍 중앙로 140,음식점 및 주점업,35.6868324,127.9140345
에꼴리에거창점,경상남도 거창군 거창읍 중앙로 147-3,소매업; 자동차 제외,35.6875447765,127.9144634996
일루이,경상남도 거창군 거창읍 중앙로 112,소매업; 자동차 제외,35.6862775,127.9108083
두원두식당,경상남도 거창군 거창읍 아림로1길 10,음식점 및 주점업,35.6854141,127.9103897
거창에너지가조가스,경상남도 거창군 가조면 방촌길 16-19,소매업; 자동차 제외,35.7062708,128.0152971
휠라인티모,경상남도 거창군 거창읍 중앙로 141,소매업; 자동차 제외,35.6873528,127.9136457
붐비상회,경상남도 거창군 거창읍 중앙로 140,소매업; 자동차 제외,35.6868324,127.9140345
거창시니어클럽소담,경상남도 거창군 거창읍 중앙로1길 138,음식점 및 주점업,35.6912412,127.918848
거창시니어클럽소담,경상남도 거창군 거창읍 상동길 50-18,음식점 및 주점업,35.6883309219,127.9044203075
동아만두,경상남도 거창군 거창읍 중앙로 140,음식점 및 주점업,35.6868324,127.9140345
거창우정식당,경상남도 거창군 거창읍 중앙로 140,음식점 및 주점업,35.6868324,127.9140345
노상청과,경상남도 거창군 거창읍 중앙로 140 상설시장,소매업; 자동차 제외,35.6868324,127.9140345
대흥돗자리,경상남도 거창군 거창읍 중앙로 140 상설시장,소매업; 자동차 제외,35.6868324,127.9140345
대왕홉스철물,경상남도 거창군 거창읍 중앙로 140 상설시장,소매업; 자동차 제외,35.6868324,127.9140345
참떡&카페,경상남도 거창군 거창읍 중앙로 140 상설시장,음식점 및 주점업,35.6868324,127.9140345
올리비아하슬러,경상남도 거창군 거창읍 중앙로 140 상설시장,소매업; 자동차 제외,35.6868324,127.9140345
컴온베이비,경상남도 거창군 거창읍 아림로 18-1,소매업; 자동차 제외,35.6849482,127.9112327
조이너스,경상남도 거창군 거창읍 아림로 30-1길,소매업; 자동차 제외,35.6858758355,127.9108400876
영일인쇄사,경상남도 거창군 거창읍 아림로 33,소매업; 자동차 제외,35.6860374,127.9104007
미니만두,경상남도 거창군 거창읍 중앙로 140,음식점 및 주점업,35.6868324,127.9140345
흥신상회,경상남도 거창군 거창읍 중앙로 140,소매업; 자동차 제외,35.6868324,127.9140345
함양떡집,경상남도 거창군 거창읍 중앙로 140,식료품 제조업,35.6868324,127.9140345
콤마,경상남도 거창군 거창읍 중앙로 140,소매업; 자동차 제외,35.6868324,127.9140345
서울해물,경상남도 거창군 거창읍 중앙로 140,소매업; 자동차 제외,35.6868324,127.9140345
준이네부침개,경상남도 거창군 거창읍 중앙로 140,음식점 및 주점업,35.6868324,127.9140345
아림식품,경상남도 거창군 거창읍 중앙로 140,소매업; 자동차 제외,35.6868324,127.9140345
성창떡집,경상남도 거창군 거창읍 중앙로 140,식료품 제조업,35.6868324,127.9140345
대구세탁소,경상남도 거창군 거창읍 중앙로 140,기타 개인 서비스업,35.6868324,127.9140345
태양해물,경상남도 거창군 거창읍 중앙로 140,소매업; 자동차 제외,35.6868324,127.9140345
해광해물,경상남도 거창군 거창읍 중앙로 140,소매업; 자동차 제외,35.6868324,127.9140345
위천제일벽돌,경상남도 거창군 위천면 송계로 249,소매업; 자동차 제외,35.7449889,127.8351089
거창코렉스자전거대리점,경상남도 거창군 거창읍 거열로 166,소매업; 자동차 제외,35.6898774,127.9119016
정장리식품,경상남도 거창군 거창읍 중앙로 140,소매업; 자동차 제외,35.6868324,127.9140345
수야네,경상남도 거창군 거창읍 중앙로 140,소매업; 자동차 제외,35.6868324,127.9140345
16번코너,경상남도 거창군 거창읍 중앙로 140,음식점 및 주점업,35.6868324,127.9140345
36청과,경상남도 거창군 거창읍 중앙로 140,소매업; 자동차 제외,35.6868324,127.9140345
제일왕만두,경상남도 거창군 거창읍 중앙로 140,음식점 및 주점업,35.6868324,127.9140345
영미용실,경상남도 거창군 거창읍 중앙로 140,기타 개인 서비스업,35.6868324,127.9140345
거창야채,경상남도 거창군 거창읍 중앙로 140,식료품 제조업,35.6868324,127.9140345
만평식육식당,경상남도 거창군 거창읍 중앙로 140,음식점 및 주점업,35.6868324,127.9140345
신진상회,경상남도 거창군 거창읍 중앙로 140 상설시장,소매업; 자동차 제외,35.6868324,127.9140345
아림해물,경상남도 거창군 거창읍 중앙로 140,도매 및 상품 중개업,35.6868324,127.9140345
대성만물사,경상남도 거창군 거창읍 중앙로 140 상설시장,음식점 및 주점업,35.6868324,127.9140345
임불상회,경상남도 거창군 거창읍 중앙로 140,소매업; 자동차 제외,35.6868324,127.9140345
유정미용실,경상남도 거창군 거창읍 중앙로 140,기타 개인 서비스업,35.6868324,127.9140345
민들레영토,경상남도 거창군 거창읍 중앙로 140,소매업; 자동차 제외,35.6868324,127.9140345
포항분식,경상남도 거창군 거창읍 중앙로 140,음식점 및 주점업,35.6868324,127.9140345
열린슈퍼,경상남도 거창군 거창읍 중앙로 140,소매업; 자동차 제외,35.6868324,127.9140345
우신상회,경상남도 거창군 거창읍 중앙로 140,소매업; 자동차 제외,35.6868324,127.9140345
중앙철물,경상남도 거창군 거창읍 중앙로 140,소매업; 자동차 제외,35.6868324,127.9140345
어린이 백화점,경상남도 거창군 거창읍 중앙로 140,소매업; 자동차 제외,35.6868324,127.9140345
가조양말,경상남도 거창군 거창읍 중앙로 140,소매업; 자동차 제외,35.6868324,127.9140345
미가먹거리,경상남도 거창군 거창읍 아림로 51,음식점 및 주점업,35.6876541,127.9097243
형경순미용실,경상남도 거창군 거창읍 중앙로 140 상설시장,기타 개인 서비스업,35.6868324,127.9140345
11번상회,경상남도 거창군 거창읍 중앙로 140 상설시장,소매업; 자동차 제외,35.6868324,127.9140345
황금축산,경상남도 거창군 거창읍 중앙로 140,소매업; 자동차 제외,35.6868324,127.9140345
세신상사,경상남도 거창군 거창읍 중앙로 140,소매업; 자동차 제외,35.6868324,127.9140345
또래오래치킨,경상남도 거창군 거창읍 창동로 120,음식점 및 주점업,35.6878985,127.9208393
거창통닭,경상남도 거창군 거창읍 중앙로 140,음식점 및 주점업,35.6868324,127.9140345
베트남고향식당,경남 거창군 거창읍 공수들5길 53,음식점 및 주점업,35.6876998342,127.9029604894
베트남고향식당,경남 거창군 거창읍 공수들5길 53,음식점 및 주점업,35.6876998,127.9029599
레아모,경상남도 거창군 거창읍 아림로 32-1,음식점 및 주점업,35.6860798,127.9108123
띤또,경상남도 거창군 북상면 덕유월성로 1433-7,숙박업,35.7643039,127.7423984
고제사장,경상남도 거창군 고제면 고제로 32,음식점 및 주점업,35.8117555,127.8735389
향기소반,경상남도 거창군 거창읍 죽전1길 37,음식점 및 주점업,35.6909499,127.9087035
양가네떡방,경상남도 거창군 거창읍 거열로 145,식료품 제조업,35.6895397,127.9096316
강남해물짬뽕,경상남도 거창군 거창읍 강남로 126,음식점 및 주점업,35.683108,127.9112036
빨봉분식,경상남도 거창군 거창읍 아림로 22,음식점 및 주점업,35.685179,127.9111705
남일피복,경상남도 거창군 거창읍 시장길 54,소매업; 자동차 제외,35.6861853,127.913703
거창정보통신,경상남도 거창군 거창읍 중앙로140,음식점 및 주점업,35.6868324,127.9140345
동아상회,경상남도 거창군 거창읍 중앙로 140,소매업; 자동차 제외,35.6868324,127.9140345
승원식당,경상남도 거창군 거창읍 중앙로 140,음식점 및 주점업,35.6868324,127.9140345
중앙당식품,경상남도 거창군 거창읍 중앙로 140,소매업; 자동차 제외,35.6868324,127.9140345
오두막집,경상남도 거창군 거창읍 중앙로 140,음식점 및 주점업,35.6868324,127.9140345
단골식당,경상남도 거창군 거창읍 중앙로140,음식점 및 주점업,35.6868324,127.9140345
트라이거창점,경상남도 거창군 거창읍 중앙로 152,소매업; 자동차 제외,35.6874004,127.9149072
봉봉타로카페,경상남도 거창군 거창읍 중앙로 140,음식점 및 주점업,35.6868324,127.9140345
오남매식육식당,경상남도 거창군 거창읍 시장길 37,음식점 및 주점업,35.6861587,127.9128036
가족건강랜드휴,경상남도 거창군 거창읍 상동2길 39,기타 개인 서비스업,35.68711711,127.9076434932
BYC거성전문점,경상남도 거창군 거창읍 중앙로 151,소매업; 자동차 제외,35.6876052,127.9147408
본전추어탕,경상남도 거창군 거창읍 강양4길 10 (대동신흥빌라),음식점 및 주점업,35.6899123,127.9179704
장난감나라,경상남도 거창군 거창읍 아림로 60,소매업; 자동차 제외,35.688386,127.9097444
충무해물,경상남도 거창군 거창읍 중앙로 140,소매업; 자동차 제외,35.6868324,127.9140345
다문화청과,경상남도 거창군 거창읍 시장길 54,소매업; 자동차 제외,35.6861853,127.913703
장팔리청과,경상남도 거창군 거창읍 중앙로 140,소매업; 자동차 제외,35.6868324,127.9140345
수복식당,경상남도 거창군 거창읍 중앙로 140,음식점 및 주점업,35.6868324,127.9140345
평산축산,경상남도 거창군 거창읍 중앙로 140,소매업; 자동차 제외,35.6868324,127.9140345
테이트(TATE),경상남도 거창군 거창읍 중앙로 135-1,소매업; 자동차 제외,35.6872489,127.9131684
크로커다일,경상남도 거창군 거창읍 중앙로 116-5,소매업; 자동차 제외,35.6863614,127.9112995
신)거창비너스.와코루,경상남도 거창군 거창읍 중앙로 151,소매업; 자동차 제외,35.6876052,127.9147408
크로커다일 레이디,경상남도 거창군 거창읍 중앙로 147-1,소매업; 자동차 제외,35.6875163,127.9143575
거창BYC전문점,경상남도 거창군 거창읍 중앙로 138,소매업; 자동차 제외,35.687105,127.9134448
솔브거창점,경상남도 거창군 거창읍 중앙로 123-2,소매업; 자동차 제외,35.6868946,127.9119388
아림골,경상남도 거창군 거창읍 동동3길 34,음식점 및 주점업,35.6899169,127.9231967
아이스왕국,경상남도 거창군 거창읍 거열로4길 36,소매업; 자동차 제외,35.6905364,127.9067853
어머니방,경상남도 거창군 거창읍 중앙로 140,소매업; 자동차 제외,35.6868324,127.9140345
명당,경상남도 거창군 거창읍 동동4길 67-15,음식점 및 주점업,35.6912445,127.9236841
도연헤어샵,경상남도 거창군 거창읍 거함대로4길 33,기타 개인 서비스업,35.6822269,127.9152497
청정,경상남도 거창군 마리면 거안로 1070,음식점 및 주점업,35.6864672,127.8730743
사진속커피향기,경상남도 거창군 거창읍 아림로 49,음식점 및 주점업,35.6874666,127.9098343
꿈을찍는사진관,경상남도 거창군 거창읍 아림로 49,"기타 전문, 과학 및 기술 서비스업",35.6874666,127.9098343
그린마트,경상남도 거창군 거창읍 중앙로 70,소매업; 자동차 제외,35.6850757,127.9063411
커피플라워,경상남도 거창군 거창읍 강변로 141,음식점 및 주점업,35.6849538,127.9124397
초하루왕갈비탕,경상남도 거창군 거창읍 시장1길 5,음식점 및 주점업,35.6851312,127.9125407
개명문구,경상남도 거창군 거창읍 아림로 47,소매업; 자동차 제외,35.6872374,127.9099354
암소한마리,경상남도 거창군 거창읍 강변로9길 71,음식점 및 주점업,35.6895723,127.9171019
씨(S'I),경상남도 거창군 거창읍 중앙로 113,소매업; 자동차 제외,35.6865274,127.9107219
행텐주니어거창점,경상남도 거창군 거창읍 중앙로143,음식점 및 주점업,35.6874201,127.9137767
거창버블플라워,경상남도 거창군 거창읍 중앙로1길 138,화학 물질 및 화학제품 제조업; 의약품 제외,35.6912412,127.918848
거창학원,경상남도 거창군 거창읍 거열로 148,교육 서비스업,35.6893514,127.9100459
중앙농약종묘사,경상남도 거창군 가조면 가조가야로 1112,소매업; 자동차 제외,35.7101638,128.0165061
서울통상,경상남도 거창군 거창읍 중앙로 140,소매업; 자동차 제외,35.6868324,127.9140345
제주냉면,경상남도 거창군 거창읍 강남로 54,음식점 및 주점업,35.6824634,127.9033551
설빙,경상남도 거창군 거창읍 강변로 117,음식점 및 주점업,35.6844373,127.9098934
영남시계점,경상남도 거창군 거창읍 중앙로 155,소매업; 자동차 제외,35.6877151,127.9152333
토니모리거창점,경상남도 거창군 거창읍 중앙로 143,소매업; 자동차 제외,35.6874201,127.9137767
하루방제과점,경상남도 거창군 거창읍 거창대로 73,소매업; 자동차 제외,35.6880163,127.9153911
현대타일상사,경상남도 거창군 거창읍 대평6길 34,도매 및 상품 중개업,35.6839007,127.9194002
고운아이 안경원,경상남도 거창군 거창읍 중앙로 130-3,소매업; 자동차 제외,35.6868166,127.9126226
도담도담,경상남도 거창군 거창읍 아림로 33,소매업; 자동차 제외,35.6860374,127.9104007
도운요,경상남도 거창군 위천면 서원길 13-22,비금속 광물제품 제조업,35.7445463,127.8236029
더플라워,경상남도 거창군 거창읍 아림로 25,소매업; 자동차 제외,35.6854987,127.9107096
거창시니어클럽실버카페웃음,경상남도 거창군 거창읍 거열로 90,음식점 및 주점업,35.6878737505,127.9035762279
거창시니어클럽소담부각,경상남도 거창군 거창읍 중앙로1길138,식료품 제조업,35.6912412,127.918848
한들약국,경상남도 거창군 거창읍 거창대로 78-1,소매업; 자동차 제외,35.6886394,127.9157511
북상식육식당,경상남도 거창군 북상면 송계로 722-1,음식점 및 주점업,35.778494,127.8187399
오피스디포거창점,경상남도 거창군 거창읍 거열로 108,도매 및 상품 중개업,35.6885163,127.9057264
옛날산골통닭,경상남도 거창군 거창읍 중앙로 149-2,음식점 및 주점업,35.6875756,127.9146191
루마썬팅거창점,경상남도 거창군 거창읍 거함대로 3177,자동차 및 부품 판매업,35.6803939,127.9094052
불닭발땡초동대문엽기떡볶이거창점,경상남도 거창군 거창읍 아림로 30-1,음식점 및 주점업,35.6858758,127.9108404
갠지스이용원,경상남도 거창군 거창읍 공수들1길 24-18,기타 개인 서비스업,35.685423,127.9011347
LB이동준베이커리,"경상남도 거창군 거창읍 공수들4길14,",음식점 및 주점업,35.686689,127.9029543
EDP함양점,경상남도 거창군 마리면 소곡1길 26,도매 및 상품 중개업,35.6864107,127.8698748
윤헤어,경상남도 거창군 거창읍 중앙로 78,기타 개인 서비스업,35.6852085,127.9072235
사색의향기,경상남도 거창군 거창읍 공수들6길 8-19,음식점 및 주점업,35.6868243,127.9041004
꽃이핀데이(DAY),경상남도 거창군 거창읍 거열로 148,음식점 및 주점업,35.6893514,127.9100459
시장할인마트,경상남도 거창군 거창읍 시장길 46,소매업; 자동차 제외,35.6860353,127.9132317
SK텔레콤거창수승대리점,경상남도 거창군 거창읍 아림로 29-1,소매업; 자동차 제외,35.6857228,127.9106005
라니모&티.비.알(T.B.R),경상남도 거창군 거창읍 상동2길 51,기타 개인 서비스업,35.6877481,127.9075318
진미용실,경상남도 거창군 거창읍 중앙로 140,기타 개인 서비스업,35.6868324,127.9140345
현대청과,경상남도 거창군 거창읍 중앙로 140 상설시장,소매업; 자동차 제외,35.6868324,127.9140345
달콤한날,경상남도 거창군 거창읍 아림로 57,음식점 및 주점업,35.6881946,127.9095308
디저트작업실218,경상남도 거창군 거창읍 상동1길36,음식점 및 주점업,35.6865898,127.9066656
비올레,경상남도 거창군 거창읍 상동1길 40,음식점 및 주점업,35.6866136,127.9070225
마루,경상남도 거창군 거창읍 공수들1길 59,음식점 및 주점업,35.6871515,127.9010312
다향,경상남도 거창군 거창읍 공수들2길 6,음식점 및 주점업,35.686117,127.9012773
바다양푼이동태탕찜전문점,경상남도 거창군 거창읍 상동7길 47-13,음식점 및 주점업,35.6881222,127.9067082
혜성옛날순대,경상남도 거창군 거창읍 상동8길 53,음식점 및 주점업,35.6860892,127.9079273
신원감악산고감농원,경상남도 거창군 신원면 과정1길 54,소매업; 자동차 제외,35.5656862,127.9246256
거창식당,경상남도 거창군 거창읍 중앙로 140,음식점 및 주점업,35.6868324,127.9140345
티스테이션거창점,경상남도 거창군 거창읍 강남로 72,자동차 및 부품 판매업,35.6825813,127.9051791
시장뻥튀기,경상남도 거창군 거창읍 중앙로 140,도매 및 상품 중개업,35.6868324,127.9140345
쿠쿠거창점,경상남도 거창군 거창읍 창동로 126,소매업; 자동차 제외,35.68839,127.9206442
동그리안경원,경상남도 거창군 거창읍 강변로9길 41 (신흥아파트),소매업; 자동차 제외,35.6885346,127.917325
에제르EYE안경원,경상남도 거창군 거창읍 거창대로 63,소매업; 자동차 제외,35.6872725814,127.9158057006
그린파크,경상남도 거창군 거창읍 거열로1길 62-6,기타 개인 서비스업,35.6934980066,127.9138375397
닭이봉원조춘천닭갈비,경상남도 거창군 거창읍 공수들6길 27,음식점 및 주점업,35.6874304,127.9033791
최씨화덕,경상남도 거창군 거창읍 강변로 117,음식점 및 주점업,35.6844373,127.9098934
레몬트리안경콘택트,경상남도 거창군 거창읍 거열로 122-1,소매업; 자동차 제외,35.68872,127.9072599
블랙야크거창점,경상남도 거창군 거창읍 거열로 122-1,소매업; 자동차 제외,35.68872,127.9072599
덕유문고,경상남도 거창군 거창읍 거열로 86,소매업; 자동차 제외,35.688161,127.9032615
아이팡,경상남도 거창군 거창읍 상동2길 63,스포츠 및 오락관련 서비스업,35.6881845,127.9074679
수헤어,경상남도 거창군 거창읍 거열로6길 70,음식점 및 주점업,35.6905801,127.9063215
예향헤어,경상남도 거창군 거창읍 거열로1길 33,기타 개인 서비스업,35.6920892,127.914021
월드장식,경상남도 거창군 거창읍 강변로9길 41 (신흥아파트),소매업; 자동차 제외,35.6885346,127.917325
베스띠벨리거창점,경상남도 거창군 거창읍 중앙로 117-1,소매업; 자동차 제외,35.6866831,127.9112987
금성반점,경상남도 거창군 거창읍 시장길 35,음식점 및 주점업,35.6861417,127.9126146
그맛집,경상남도 거창군 거창읍 강변로8길 17,음식점 및 주점업,35.6850291,127.9091868
콜핑거창점,경상남도 거창군 거창읍 거열로 190-1,소매업; 자동차 제외,35.6904653,127.9143603
대동축산,경상남도 거창군 거창읍 거창대로 76,도매 및 상품 중개업,35.6882715,127.9158265
유명브랜드,경상남도 거창군 거창읍 중앙로 140 상설시장,소매업; 자동차 제외,35.6868324,127.9140345
웅이수산,경상남도 거창군 거창읍 중앙로 140,소매업; 자동차 제외,35.6868324,127.9140345
(주)신진,경상남도 거창군 거창읍 거창대로 11-1,자동차 및 부품 판매업,35.6828419,127.9176497
낙지골,경상남도 거창군 거창읍 중앙로 193,음식점 및 주점업,35.6886952,127.9191989
천연상사(유한킴벌리),경상남도 거창군 거창읍 소만5길 19,도매 및 상품 중개업,35.6923742,127.920868
거창공유농업사회적협동조합,경상남도 거창군 거창읍 거함대로 3372,농업,35.6758035,127.926212
거창밧데리할인점,경상남도 거창군 거창읍 공수들1길 43,자동차 및 부품 판매업,35.6864927,127.9004933
바푸리,경상남도 거창군 거창읍 상동길 46,음식점 및 주점업,35.6878214,127.904465
성원농자재 비닐천막,경상남도 거창군 거창읍 중앙로1길 51,소매업; 자동차 제외,35.6889712,127.9149934
르노코리아자동차서비스코너 거창점,경상남도 거창군 거창읍 대평3길 23,개인 및 소비용품 수리업,35.6838152,127.9211794
일성철물공구볼트,경상남도 거창군 거창읍 중앙로2길 7,소매업; 자동차 제외,35.6885723,127.9179804
이마트24 거창가조온천점,경상남도 거창군 가조면 도산길 3,소매업; 자동차 제외,35.6990949,128.0204511
이마트24 거창창동점,경상남도 거창군 거창읍 창동로 131,소매업; 자동차 제외,35.688922,127.9200193
이마트24 거창승강기밸리점,경상남도 거창군 남상면 승강기길 57,소매업; 자동차 제외,35.6536055672,127.9313260961
이마트24 거창승강기밸리점,경상남도 거창군 남상면 승강기길 57 1층,소매업; 자동차 제외,35.6536,127.9313237
GS25거창대평점,경상남도 거창군 거창읍 강남로 216,소매업; 자동차 제외,35.6861088,127.920698
GS25거창초등학교점,경상남도 거창군 거창읍 하동1길 26,소매업; 자동차 제외,35.6878919,127.9120043
GS25거창원룸점,경상남도 거창군 거창읍 공수들4길 25,소매업; 자동차 제외,35.6872017,127.9026152
GS25거창송림점,경상남도 거창군 거창읍 강양4길 26 (송림아파트),소매업; 자동차 제외,35.6898817,127.9187067
GS25거창중앙점,경상남도 거창군 거창읍 거열로1길 86 (지엔지 4차),소매업; 자동차 제외,35.6939372,127.9122408
GS25거창보고점,경상남도 거창군 거창읍 거열로1길 25,소매업; 자동차 제외,35.6918103,127.9141201
GS25거창푸르지오점,경상남도 거창군 거창읍 송정2길 33 (푸르지오아파트),소매업; 자동차 제외,35.6818692,127.9001844
세븐일레븐 거창향교점,경상남도 거창군 거창읍 교촌길 30-13,소매업; 자동차 제외,35.6911932,127.9043035
세븐일레븐거창점,경상남도 거창군 거창읍 거함대로 3200,소매업; 자동차 제외,35.6801952,127.9117939
세븐일레븐 거창중앙스타점,경상남도 거창군 거창읍 거열로 167-1,소매업; 자동차 제외,35.6904081,127.9120336
배터진수타돈까스,경상남도 거창군 거창읍 아림로3길 46,음식점 및 주점업,35.6892323,127.9118305
착한한돈,경상남도 거창군 거창읍 공수들 7길 22,음식점 및 주점업,35.6858588,127.9010608
고우나,경상남도 거창군 거창읍 중앙로 150,소매업; 자동차 제외,35.687334,127.9145514
시골촌닭,경상남도 거창군 거창읍 중앙로 140,소매업; 자동차 제외,35.6868324,127.9140345
아림돼지국밥,경상남도 거창군 거창읍 거열로 182,음식점 및 주점업,35.6902681,127.9134628
동신이용원,경상남도 거창군 거창읍 거창대로3길 21,기타 개인 서비스업,35.6887393538,127.9168241196
마샬미용실,경상남도 거창군 거창읍 강변로9길 41,기타 개인 서비스업,35.6885346,127.917325
창동이발관,경상남도 거창군 거창읍 거창대로2길 15,기타 개인 서비스업,35.6877282,127.916526
새한칼라,경상남도 거창군 거창읍 중앙로1길 7-1,"기타 전문, 과학 및 기술 서비스업",35.6875078,127.9134674
험멜코리아(거창점),경상남도 거창군 거창읍 중앙로 143,소매업; 자동차 제외,35.6874201,127.9137767
날마다커피,경상남도 거창군 거창읍 하동2길 3,음식점 및 주점업,35.6876504,127.9136082
꼼빠니아,경상남도 거창군 거창읍 아림로 32,소매업; 자동차 제외,35.6859498,127.9108032
준플라워샵,경상남도 거창군 거창읍 거열로 179,소매업; 자동차 제외,35.6904769,127.9131275
대현마트,경상남도 거창군 거창읍 거열로1길 74,소매업; 자동차 제외,35.6937391,127.9130054
감성카페아메리카노,경상남도 거창군 거창읍 공수들1길 54,음식점 및 주점업,35.6867746,127.9010166
로맨틱이태리,경상남도 거창군 거창읍 공수들1길 45,음식점 및 주점업,35.6865989,127.9005744
아리랑가스,경상남도 거창군 마리면 고창길 176,소매업; 자동차 제외,35.6774924,127.8626779
경도인쇄사,경상남도 거창군 거창읍 중앙로 106,인쇄 및 기록매체 복제업,35.6858727,127.9101186
생각나회초밥,경상남도 거창군 거창읍 시장2길 9,음식점 및 주점업,35.6856242,127.9134708
덕성상사,경상남도 거창군 거창읍 시장3길 19,소매업; 자동차 제외,35.686482,127.9147151
미연출미용실,경상남도 거창군 거창읍 하동1길 38,기타 개인 서비스업,35.6885055,127.9118963
cafe 별솔,경상남도 거창군 거창읍 아림로 49-1,음식점 및 주점업,35.6875663,127.909825
아리따움거창점,경상남도 거창군 거창읍 중앙로 118-1,소매업; 자동차 제외,35.6864642,127.9114334
진토,경상남도 거창군 거창읍 정장2길 24-5,식료품 제조업,35.6707146,127.9186735
창동고추방아간,경상남도 거창군 거창읍 중앙로 140,음식점 및 주점업,35.6868324,127.9140345
만물농산,경상남도 거창군 거창읍 시장3길 1,농업,35.6857226,127.9148561
종근당건강 헬스벨스토리,경상남도 거창군 거창읍 중앙로1길 23,소매업; 자동차 제외,35.6880127,127.9140692
춘천집,경상남도 거창군 거창읍 아림로1길 19,음식점 및 주점업,35.685088,127.9099136
글라스 스토리 안경원(거창점),경상남도 거창군 거창읍 거열로 98,소매업; 자동차 제외,35.6883663,127.9046361
씨유거창궁전점,경상남도 거창군 거창읍 거열로4길 82 (궁전아파트),소매업; 자동차 제외,35.6921977,127.9081385
한다라이,경상남도 거창군 거창읍 시장2길 18,음식점 및 주점업,35.686010412,127.9136203451
한다라이,경상남도 거창군 거창읍 시장2길 18,음식점 및 주점업,35.6860104,127.9136206
우성댓잎,경상남도 거창군 거창읍 상동길 31,음식점 및 주점업,35.6865749,127.9045144
박상진스튜디오,경상남도 거창군 거창읍 중앙로 90-1,"기타 전문, 과학 및 기술 서비스업",35.6854062738,127.908599765
청,경상남도 거창군 거창읍 상동길 30,음식점 및 주점업,35.6865659,127.9049572
거창추어탕,경상남도 거창군 거창읍 강남로 114,음식점 및 주점업,35.6830136,127.9099013
송플라워앳홈,경상남도 거창군 거창읍 하동1길 59,도매 및 상품 중개업,35.6894373,127.9114981
씨유거창송정점,경상남도 거창군 거창읍 강남로 78,소매업; 자동차 제외,35.6825964,127.9059834
씨유거창상림점,경상남도 거창군 거창읍 상동길 50,소매업; 자동차 제외,35.6883269,127.9044251
중앙타일,경상남도 거창군 거창읍 거열로 191,도매 및 상품 중개업,35.6908678,127.9143543
대구해물,경상남도 거창군 거창읍 중앙로 140,소매업; 자동차 제외,35.6868324,127.9140345
솔잎가든,경상남도 거창군 거창읍 강변로7길 13,음식점 및 주점업,35.6847829,127.9081358
씨유거창가조점,경상남도 거창군 가조면 마상4길 91-2,소매업; 자동차 제외,35.709921,128.0143623
마코스포츠,경상남도 거창군 거창읍 중앙로 115-2,소매업; 자동차 제외,35.6866433,127.9110795
프로스펙스 거창점,경상남도 거창군 거창읍 중앙로 116-3,소매업; 자동차 제외,35.6863521,127.9112199
거창총각족발,경상남도 거창군 거창읍 공수들7길 19,음식점 및 주점업,35.6861367,127.9008397
불곰탕,경상남도 거창군 거창읍 중앙로1길 75-5,음식점 및 주점업,35.6898919,127.9155629
티트리헤어샵,경상남도 거창군 거창읍 아림로 32,기타 개인 서비스업,35.6859498,127.9108032
만가네,경상남도 거창군 거창읍 창동로 145,음식점 및 주점업,35.6898702,127.9195291
디딤돌,경상남도 거창군 거창읍 시장2길 15,음식점 및 주점업,35.6858556,127.9133871
장모님양념통닭거창점,경상남도 거창군 거창읍 강변로 259,음식점 및 주점업,35.6890761,127.9242915
미가도,경상남도 거창군 거창읍 소만3길 35-20,음식점 및 주점업,35.6947833,127.9217314
헤어포인트,경상남도 거창군 거창읍 송정2길 33 (거창푸르지오),기타 개인 서비스업,35.6818692,127.9001844
시루떡,경상남도 거창군 거창읍 거열로 186-1,식료품 제조업,35.690412,127.9140395
산골오미자,경상남도 거창군 가조면 가조가야로 1073,도매 및 상품 중개업,35.7099336,128.012392
지노텔레콤,경상남도 거창군 거창읍 아림로 18,소매업; 자동차 제외,35.6848955,127.9112915
중화만두,경상남도 거창군 거창읍 하동1길 39,음식점 및 주점업,35.6884295,127.9116997
대웅족발보쌈,경상남도 거창군 거창읍 하동4길 82,음식점 및 주점업,35.6893445,127.9148307
휴대폰마트,경상남도 거창군 거창읍 아림로 53-4,음식점 및 주점업,35.6877554647,127.909696649
이정남식품,경상남도 거창군 가조면 동례길 68-24,소매업; 자동차 제외,35.7096063,127.9976658
창성식당,경상남도 거창군 거창읍 거창대로2길 24,음식점 및 주점업,35.6877841,127.9171504
반도턱시,경상남도 거창군 거창읍 거열로 191,소매업; 자동차 제외,35.6908678,127.9143543
회뜨는집,경상남도 거창군 거창읍 상동7길 15-5,음식점 및 주점업,35.6875233,127.9051369
자담치킨쏘유족발거창점,경상남도 거창군 거창읍 상동7길 47-19,음식점 및 주점업,35.6883571,127.9067058
까만콩,경상남도 거창군 거창읍 거열로 109,음식점 및 주점업,35.6889457,127.9057044
대한당,경상남도 거창군 거창읍 중앙로 123-3,소매업; 자동차 제외,35.6868822,127.9118185
엔젤,경상남도 거창군 거창읍 시장길 9,소매업; 자동차 제외,35.6856866,127.9113465
빵장수,경상남도 거창군 거창읍 중앙로 126,음식점 및 주점업,35.6866762,127.9121687
일신식당,경상남도 거창군 거창읍 중앙로 121-8,음식점 및 주점업,35.6870086,127.9115971
전원막창,경상남도 거창군 거창읍 강변로 137-2,음식점 및 주점업,35.6848658,127.9121383
들안촌숯불갈비,경상남도 거창군 거창읍 거창대로 30,음식점 및 주점업,35.6843225,127.9175481
코아루횟집,경상남도 거창군 거창읍 새동네2길 33,음식점 및 주점업,35.6878711,127.9276633
쭌이네한판뒤집기,경상남도 거창군 거창읍 강남로 98,음식점 및 주점업,35.6828761,127.9081361
허니라이브카페식당,경상남도 거창군 거창읍 강남로 78,음식점 및 주점업,35.6825964,127.9059834
금호추어탕,경상남도 거창군 거창읍 강남로1길 196-6,음식점 및 주점업,35.6826935,127.911177
금향,경상남도 거창군 거창읍 강남로1길 192,식료품 제조업,35.6827264,127.9110649
꿈꾸는별사탕,경남 거창군 거창읍 상동1길 40,음식점 및 주점업,35.6866205539,127.9070178028
꿈꾸는별사탕,경남 거창군 거창읍 상동1길 40,음식점 및 주점업,35.6866136,127.9070225
아돈깍분식,경상남도 거창군 거창읍 수남로 2226,음식점 및 주점업,35.6776446,127.9116233
스토리빌리지,경상남도 거창군 거창읍 수남로 2240,음식점 및 주점업,35.6789846,127.9118861
롯데안경,경상남도 거창군 거창읍 수남로 2242,소매업; 자동차 제외,35.6790905,127.9119083
앗뽕이다,경상남도 거창군 거창읍 수남로 2251,음식점 및 주점업,35.6799976,127.9117438
뿌에블로젤라또,경상남도 거창군 거창읍 중앙로 71-1,소매업; 자동차 제외,35.685365,127.9064617
사이,경상남도 거창군 거창읍 송정2길 33 (거창푸르지오),기타 개인 서비스업,35.6818692,127.9001844
주식회사 진양,경상남도 거창군 거창읍 거열로 128,도매 및 상품 중개업,35.6888801,127.9078276
주식회사 남영상사,경상남도 거창군 거창읍 거함대로5길 57,도매 및 상품 중개업,35.6829068,127.9211093
경남신용보증재단 거창지점,경상남도 거창군 거창읍 시장1길 35,보험 및 연금업,35.6862846,127.9116625
거창이지할인마트,경상남도 거창군 거창읍 강변로9길 51,소매업; 자동차 제외,35.6889898,127.9175038
네네치킨거창1호점,경상남도 거창군 거창읍 아림로 47-1,음식점 및 주점업,35.6873696,127.9098738
커피마루,경상남도 거창군 가조면 가조가야로 1103-1,음식점 및 주점업,35.7104249,128.0156124
신가네짬뽕,경상남도 거창군 가조면 가조가야로 1109,음식점 및 주점업,35.7104597,128.0163102
신주꾸,경상남도 거창군 거창읍 거열로 102,음식점 및 주점업,35.6883895,127.9049266
제1능이버섯백숙과능이생국수,경상남도 거창군 거창읍 중앙로 116-9,음식점 및 주점업,35.6861674,127.9113744
상동스마트billiards,경상남도 거창군 거창읍 거열로 84,스포츠 및 오락관련 서비스업,35.6881401,127.9030298
양지영농조합법인,경상남도 거창군 신원면 양지1길 8-1,농업,35.5849551956,127.9584444119
청춘돼지촌,경상남도 거창군 거창읍 공수들4길 40,음식점 및 주점업,35.6878246,127.9027755
돈가람,경상남도 거창군 거창읍 공수들3길 46,음식점 및 주점업,35.687051,127.903296
푸드카페 밀,경상남도 거창군 거창읍 공수들2길 34,음식점 및 주점업,35.687189,127.9018875
SOUP,경상남도 거창군 거창읍 중앙로 143-2,음식점 및 주점업,35.6874534,127.9140578
천오장모텔,경상남도 거창군 거창읍 거창대로3길 11,숙박업,35.6886274,127.9161306
우리아이수학교습소,"경상남도 거창군 거창읍 거열로5길 16-13,",교육 서비스업,35.6897417,127.9056008
진짜식육식당,경상남도 거창군 거창읍 창남1길7,음식점 및 주점업,35.6811144,127.9140274
남경풍천장이,경상남도 거창군 거창읍 중앙로 60,음식점 및 주점업,35.6848756124,127.9050954751
거창농산,경상남도 거창군 거창읍 강변로 177,도매 및 상품 중개업,35.6861702,127.9161017
페르마수학거창학원,경상남도 거창군 거창읍 거창대로1길 21,교육 서비스업,35.6873963,127.9173171
거창밥집,경상남도 거창군 거창읍 밤티재로 1327,음식점 및 주점업,35.6737963,127.9318657
국밥슐랭거창점,경상남도 거창군 거창읍 소만4길 21-16,음식점 및 주점업,35.6937362,127.9234799
최고당돈가스,경상남도 거창군 거창읍 공수들5길 50,음식점 및 주점업,35.6875706,127.9032116
생생돈까스,경상남도 거창군 거창읍 공수들4길 15,음식점 및 주점업,35.6867226,127.9026727
꽃마시다,경상남도 거창군 마리면 거안로 1062,음식점 및 주점업,35.6865668,127.8721454
마루,경상남도 거창군 거창읍 중앙로 125-1,소매업; 자동차 제외,35.6869584,127.912195
맛고을,경상남도 거창군 거창읍 공수들6길 6,음식점 및 주점업,35.6864709,127.9037866
춘천샘토참숯닭갈비,경상남도 거창군 거창읍 공수들4길 17,음식점 및 주점업,35.6868523,127.902644
청운각,경상남도 거창군 거창읍 수남로 2216,음식점 및 주점업,35.6768361,127.9114816
오토마켓(Auto Market),경상남도 거창군 거창읍 공수들7길 17,개인 및 소비용품 수리업,35.6861014,127.9006706
한진자전거,경상남도 거창군 거창읍 아림로 56,소매업; 자동차 제외,35.6881251,127.9099876
북경반점,경상남도 거창군 거창읍 하동2길16,음식점 및 주점업,35.6881575,127.9135494
이마트24거창수승대점,경상남도 거창군 위천면 송계로 358,소매업; 자동차 제외,35.7546856,127.8333834
GS칼텍스 아림주유소,경상남도 거창군 거창읍 거열로4길 92,소매업; 자동차 제외,35.6926669,127.9076284
금빛헤어살롱,경상남도 거창군 거창읍 강변로 153,기타 개인 서비스업,35.6854179,127.9136965
링스 거창점,경상남도 거창군 거창읍 강변로 155,소매업; 자동차 제외,35.6854369,127.913904
솝포유,경상남도 거창군 거창읍 거열로6길 50,소매업; 자동차 제외,35.6898637,127.9054834
삼거리생푸줏간,경상남도 거창군 거창읍 공수들4길 31,음식점 및 주점업,35.6874206,127.9025781
운정골,경상남도 거창군 거창읍 운정1길 114,음식점 및 주점업,35.6759717,127.8978335
청용각,경상남도 거창군 거창읍 공수들5길 53,음식점 및 주점업,35.6876998,127.9029599
별미갈비찜,경상남도 거창군 거창읍 강양1길 5,음식점 및 주점업,35.6894628,127.9192172
일오식당,경상남도 거창군 북상면 송계로 721,음식점 및 주점업,35.7782974,127.8185474
마켓정정육식당,경상남도 거창군 거창읍 공수들1길 29,소매업; 자동차 제외,35.685788,127.9002153
대통큰구이거창점,경상남도 거창군 거창읍 공수들6길 4,음식점 및 주점업,35.6864141,127.9038794
아림모터스,경상남도 거창군 거창읍 거열로3길 10 (대동리 판타블 아파트),자동차 및 부품 판매업,35.6919682,127.9168207
하늘헤어샵,경상남도 거창군 거창읍 수남로 2266,기타 개인 서비스업,35.6811342,127.9124528
토담식당,경상남도 거창군 거창읍 정장길 3,음식점 및 주점업,35.6780709,127.9116279
대성복.찜전문점,경상남도 거창군 거창읍 소만2길 28-4,음식점 및 주점업,35.6934334,127.9224429
상림마트,경상남도 거창군 거창읍 중앙로 41,소매업; 자동차 제외,35.684838,127.903318
가조할인마트,경상남도 거창군 가조면 가조가야로 1120,소매업; 자동차 제외,35.710169,128.017463
김정숙미용실,경상남도 거창군 거창읍 수남로 2259,기타 개인 서비스업,35.6806622,127.9119937
하나로마트 남거창농협 신원지점,경상남도 거창군 신원면 신차로 3054,소매업; 자동차 제외,35.5666173,127.9260649
하나로마트 동거창농협 가북지점,경상남도 거창군 가북면 용암로 22,소매업; 자동차 제외,35.7630586,127.9941927
라반요가앤필라테스,"경상남도 거창군 거창읍 거열로 106,",스포츠 및 오락관련 서비스업,35.688471,127.9054728
아날협동조합,경상남도 거창군 거창읍 거열로5길 10-13,음식점 및 주점업,35.6896326,127.9058704
빽다방,경상남도 거창군 거창읍 중앙로 123,음식점 및 주점업,35.6868201,127.9118176
미스터류헤어스튜디어,경상남도 거창군 거창읍 하동1길 8,기타 개인 서비스업,35.6870344527,127.9121642068
서강통신,경상남도 거창군 거창읍 중앙로 141,소매업; 자동차 제외,35.6873528,127.9136457
보배반점 거창점,"경상남도 거창군 거창읍 창동로 119 (한흥스포렉스,한흥아파트)",음식점 및 주점업,35.687876,127.9203504
파스타부오노(거창점),경상남도 거창군 거창읍 아림로1길 10,음식점 및 주점업,35.6854141,127.9103897
제이케이카,경상남도 거창군 거창읍 강남로 66,자동차 및 부품 판매업,35.6825926,127.9045304
선물하는정육점,경상남도 거창군 거창읍 거열로 165,소매업; 자동차 제외,35.6901351,127.9117094
부경숯불가든,경상남도 거창군 거창읍 공수들1길 77,음식점 및 주점업,35.6878101,127.9015426
아림컴퓨터,경상남도 거창군 거창읍 거창대로 27,소매업; 자동차 제외,35.6841168,127.9171593
하나로마트 거창북부농협 고제점,경상남도 거창군 고제면 입석1길 7,소매업; 자동차 제외,35.813968,127.871677
하나로마트 거창북부농협 본점,경상남도 거창군 주상면 당대고개길 6,소매업; 자동차 제외,35.7500058,127.9142194
하나로마트 거창북부농협 하성점,경상남도 거창군 웅양면 웅양로 2312,소매업; 자동차 제외,35.8721273,127.921205
덕유산쌀집,경상남도 거창군 거창읍 중앙로 140,소매업; 자동차 제외,35.6868324,127.9140345
한국지엠거창서비스,경상남도 거창군 거창읍 가조가야로 12,개인 및 소비용품 수리업,35.6952145,127.9210705
ANT HILL,경상남도 거창군 거창읍 공수들1길 51,음식점 및 주점업,35.6868225,127.9007257
큐브6,경상남도 거창군 거창읍 동동3길 7 (전원아파트),정보서비스업,35.6888179,127.9226875
거창휠라대리점,경상남도 거창군 거창읍 중앙로 143-1,소매업; 자동차 제외,35.6874564,127.9139832
희망빨래방,"경상남도 거창군 거창읍 하동1길 39,",기타 개인 서비스업,35.6884295,127.9116997
휴대폰세상,"경상남도 거창군 거창읍 아림로 36-1,",소매업; 자동차 제외,35.6865489397,127.9105230699
아림가스,"경상남도 거창군 거창읍 중앙로1길 86,",소매업; 자동차 제외,35.6899338193,127.916581158
컬리수,경상남도 거창군 거창읍 중앙로 155,소매업; 자동차 제외,35.6877151,127.9152333
배스킨라빈스거창점,경상남도 거창군 거창읍 중앙로 115-2,음식점 및 주점업,35.6866433,127.9110795
올리비아로렌,경상남도 거창군 거창읍 중앙로 151-1,소매업; 자동차 제외,35.6876336,127.9148474
깜빵돼지,경상남도 거창군 거창읍 중앙로1길 23,음식점 및 주점업,35.6880127,127.9140692
거창하림닭대리점,경상남도 거창군 거창읍 시장3길 11,도매 및 상품 중개업,35.6861949,127.914735
다이소 거창상림점,경상남도 거창군 거창읍 상동길 12,소매업; 자동차 제외,35.6848265,127.905546
가조왕방앗간,경상남도 거창군 거창읍 거열로1길 43,식료품 제조업,35.6925974,127.9138003
산내들한정식,경상남도 거창군 거창읍 거열로1길 26,음식점 및 주점업,35.6918464,127.914444
민턴나라,경상남도 거창군 거창읍 거열로 151,소매업; 자동차 제외,35.6897077,127.9102458
삼성네트윅,경상남도 거창군 거창읍 거함대로 3251,도매 및 상품 중개업,35.681892,127.9172872
거창스포츠클럽학원,경상남도 거창군 거창읍 김천2길 5,교육 서비스업,35.676474,127.9110855
원아구찜,경상남도 거창군 거창읍 상동7길 23-13,음식점 및 주점업,35.6880694,127.9054475
양평해장국거창점,경상남도 거창군 거창읍 상동5길 20,음식점 및 주점업,35.6883498,127.9064965
정 한의원,경상남도 거창군 위천면 송계로 356,보건업,35.7543484,127.8335014
아디다스거창점,경상남도 거창군 거창읍 중앙로 136,소매업; 자동차 제외,35.6869689,127.9132217
형치과,경상남도 거창군 거창읍 거창대로 63,보건업,35.6872726,127.915806
신내과의원,경상남도 거창군 거창읍 중앙로 136,보건업,35.6869689,127.9132217
미니골드거창점,경상남도 거창군 거창읍 중앙로 143,소매업; 자동차 제외,35.6874201,127.9137767
D.C마트,경상남도 거창군 거창읍 중앙로 136,소매업; 자동차 제외,35.6869689,127.9132217
대풍농약종묘사,경상남도 거창군 거창읍 거창대로 89,소매업; 자동차 제외,35.6893924,127.9150198
거창농약사,경상남도 거창군 거창읍 거창대로 79,소매업; 자동차 제외,35.6886156667,127.9152655989
아름다운 아림골 거창원예,경상남도 거창군 거창읍 거창대로 79,소매업; 자동차 제외,35.6886156667,127.9152655989
서부약국,경상남도 거창군 거창읍 시장길 98,소매업; 자동차 제외,35.6871181,127.9159018
수승대약국,경상남도 거창군 거창읍 거창대로 71-1,소매업; 자동차 제외,35.6879712,127.9154472
제일안경점,경상남도 거창군 거창읍 중앙로 123-3,소매업; 자동차 제외,35.6868822,127.9118185
성민카부분정비,경상남도 거창군 거창읍 거함대로5길 47,개인 및 소비용품 수리업,35.6827966,127.9206502
복사골,경상남도 거창군 거창읍 공수들3길 7,음식점 및 주점업,35.6864105,127.9015723
실버카페웃음,경상남도 거창군 거창읍 아림로66,음식점 및 주점업,35.6890647,127.9098343
실버까페웃음,경상남도 거창군 거창읍 시장2길 20,음식점 및 주점업,35.6860962813,127.9134566154
대성정보통신,경상남도 거창군 거창읍 공수들1길 37,전문직별 공사업,35.6862722413,127.9003402025
제일식육식당,경상남도 거창군 거창읍 시장길 76,음식점 및 주점업,35.6865485,127.9148498
강호네김집,경상남도 거창군 거창읍 중앙로 140,소매업; 자동차 제외,35.6868324,127.9140345
태백축산,경상남도 거창군 거창읍 강변로 171-2,도매 및 상품 중개업,35.6859698,127.9156947
미림플라워랜드,경상남도 거창군 거창읍 거열로 33,도매 및 상품 중개업,35.6854351,127.8990125
주식회사거창유기,경상남도 거창군 남하면 가조가야로 308,금속 가공제품 제조업; 기계 및 가구 제외,35.700183,127.945004
장수식당,경상남도 거창군 거창읍 중앙로 140,음식점 및 주점업,35.6868324,127.9140345
오공떵번거창점,경상남도 거창군 거창읍 강변로8길 20,음식점 및 주점업,35.6851206,127.9094344
미즈나인,경상남도 거창군 거창읍 중앙로 128-1,소매업; 자동차 제외,35.6867581,127.9124493
외양간구시,경상남도 거창군 거창읍 상동2길 70,음식점 및 주점업,35.6885022,127.9076852
홍천뚝배기,경상남도 거창군 거창읍 거열로 197-1,음식점 및 주점업,35.6910411,127.9150963
디디치킨앤피자,경상남도 거창군 위천면 송계로 357,음식점 및 주점업,35.7548677,127.8329618
단계식당,경상남도 거창군 거창읍 거함대로4길 86,음식점 및 주점업,35.6833079,127.9128052
임실치즈피자,경상남도 거창군 거창읍 아림로 26-1,음식점 및 주점업,35.6855656,127.9109751
쉬즈인헤어,경상남도 거창군 거창읍 거창대로 74,기타 개인 서비스업,35.6881803,127.9158671
사또식당,경상남도 거창군 거창읍 시장길 81-8,음식점 및 주점업,35.6870416,127.9149681
스피드크럽,경상남도 거창군 거창읍 강양4길 43,개인 및 소비용품 수리업,35.6905315,127.9194893
충무김밥,경상남도 거창군 거창읍 상동7길 93,음식점 및 주점업,35.6880627,127.9095453
밀포드야식,경상남도 거창군 거창읍 하동2길 10,음식점 및 주점업,35.6879512,127.913679
한양1인독서실,경상남도 거창군 거창읍 거열로7길 27,"창작, 예술 및 여가관련 서비스업",35.6893507,127.9019998
