매장명,도로명주소,매장유형,위도,경도
비원,경상남도 하동군 화개면 화개로 641,숙박업,35.2400121001,127.6416285333
비원,경상남도 하동군 화개면 화개로 641 비원,숙박업,35.2400121,127.6416289
모가(MOGA)드론,경상남도 하동군 악양면 개치미동길 19-4,사업 지원 서비스업,35.1313939,127.6968698
유한회사 안전가스설비,경상남도 하동군 적량면 중도길 20-6,소매업; 자동차 제외,35.0719137,127.7725921
극동철물,경상남도 하동군 하동읍 중앙로 23,도매 및 상품 중개업,35.07022,127.7499641
삼채나라,경상남도 하동군 적량면 관동길 31 관리,소매업; 자동차 제외,35.0877136,127.7677701
부산식당,경상남도 하동군 하동읍 중앙2길 11,음식점 및 주점업,35.0698682058,127.7473119136
바디스미스,경상남도 하동군 하동읍 경서대로 144,스포츠 및 오락관련 서비스업,35.0678931,127.7498165
횡천농기계,경상남도 하동군 횡천면 횡계길 6,기타 개인 서비스업,35.108382,127.8131196
삼원다원,경상남도 하동군 화개면 삼신길 28,소매업; 자동차 제외,35.2112861,127.6362037
태주상사,"경상남도 하동군 하동읍 섬진강대로 2176, 1층",소매업; 자동차 제외,35.0683378,127.7409953
옥종식육점,경상남도 하동군 옥종면 옥종중앙길 57,소매업; 자동차 제외,35.1805343,127.8793752
송송,경상남도 하동군 화개면 쌍계로 15,음식점 및 주점업,35.1880401875,127.6240867761
롯데수퍼,"경상남도 하동군 하동읍 경서대로 89, 1층",소매업; 자동차 제외,35.0647219,127.7462758
김정선헤어샵,경상남도 하동군 하동읍 시장1길 27 김정선미용실,기타 개인 서비스업,35.0681526,127.7492467
일진보일러,경상남도 하동군 금성면 금성중앙길 167,전문직별 공사업,34.9637275787,127.8047505997
일진보일러,경상남도 하동군 금성면 금성중앙길 167,전문직별 공사업,34.9637275922,127.8047506436
하늘드론교육원,경상남도 하동군 옥종면 옥산서원길 11,교육 서비스업,35.1602403967,127.883935322
하늘드론교육원,경상남도 하동군 옥종면 옥산서원길 11,교육 서비스업,35.1602823336,127.883898803
문도양상추식당,경상남도 하동군 하동읍 문도길 24,음식점 및 주점업,35.0378822,127.7758992
화개송이농산,경상남도 하동군 화개면 쌍계로 361-5,소매업; 자동차 제외,35.212911,127.6401933
고전만물수리센타,경상남도 하동군 고전면 하동읍성로 645,개인 및 소비용품 수리업,35.0216897,127.8408542
전도분식,경상남도 하동군 금남면 섬진강대로 962,음식점 및 주점업,34.9967922,127.8104237
풍교헌,경상남도 하동군 청암면 청학로 2444 풍교헌,교육 서비스업,35.2392424,127.7166114
풍교헌,경상남도 하동군 청암면 청학로 2444,교육 서비스업,35.239242457,127.7166110785
르노삼성자동차 지정정비코너 하동점,경상남도 하동군 하동읍 경서대로 222 르노삼성자동차지정정비 하동점,개인 및 소비용품 수리업,35.0713405,127.7565201
물고기집,경상남도 하동군 하동읍 중앙로 108,음식점 및 주점업,35.073591,127.7417522
대성씽크,경상남도 하동군 하동읍 공설운동장로 20-4,전기장비 제조업,35.0703085,127.7626435
목동수학교습소,경상남도 하동군 하동읍 경서대로 99,교육 서비스업,35.064983807,127.7471507502
밀밭,경상남도 하동군 북천면 경서대로 2027,음식점 및 주점업,35.1145512,127.8527793
화이트 하우스,경상남도 하동군 화개면 범왕길 342,숙박업,35.2820289,127.6174454
희망이용원,경상남도 하동군 하동읍 경서대로 138,기타 개인 서비스업,35.0675388,127.7494595
더(The) 주영,경상남도 하동군 하동읍 시장1길 10,소매업; 자동차 제외,35.0699426,127.7486615
가로내식당,경상남도 하동군 횡천면 문화2길 24,음식점 및 주점업,35.1092123,127.8107004
고마트 진교점,경상남도 하동군 진교면 산복벚꽃길 5 고마트,소매업; 자동차 제외,35.0325959,127.9001374
남천상회,"경상남도 하동군 하동읍 중앙1길 5-4, 1층",소매업; 자동차 제외,35.0702418,127.747892
다우당,경상남도 하동군 화개면 신촌도심길 65-1,소매업; 자동차 제외,35.2168645,127.6518197
소현의집,"경상남도 하동군 옥종면 옥종시장길 5, 4동 7-나",음식점 및 주점업,35.1821371,127.8802023
엄마의 유혹,경상남도 하동군 하동읍 시장1길 27,음식점 및 주점업,35.0681526,127.7492467
해맑은요양보호사교육원,경상남도 하동군 하동읍 화심길 51-13,교육 서비스업,35.0821216,127.7366996
휘게스테이,경상남도 하동군 화개면 신촌도심길 31 휘게스테이펜션,숙박업,35.2184017,127.6452389
휘게스테이,경상남도 하동군 화개면 신촌도심길 31,숙박업,35.2184026252,127.64523922
에스페로,경상남도 하동군 진교면 민다리길 62-4,소매업; 자동차 제외,35.0273292,127.9036655
대영설비,"경상남도 하동군 금성면 신도길 165-16, 대영설비",전문직별 공사업,34.9621656,127.7910617
옥종불소유황천,경상남도 하동군 옥종면 세종태실로 573 1층카운터,기타 개인 서비스업,35.1569186,127.8920622
미래종합농산(황금보약),경상남도 하동군 화개면 쌍계로 21,소매업; 자동차 제외,35.1886236,127.6242244
도혜당,경상남도 하동군 북천면 금촌길 103 도혜당,소매업; 자동차 제외,35.1147395,127.8447044
제일통신,경상남도 하동군 진교면 민다리길 100-1,개인 및 소비용품 수리업,35.0305303,127.9018937
씨엔엘 에프에이,경상남도 하동군 금성면 궁항중앙길 34,기타 기계 및 장비 제조업,34.9757071,127.7884191
아름농원,경상남도 하동군 적량면 서촌길 27,소매업; 자동차 제외,35.1194968,127.7645854
쌍계도예체험장,"경상남도 하동군 화개면 쌍계로 15, 화개장터 장옥 주3동2호",교육 서비스업,35.1880103,127.6240814
섬진강원동재첩(원동식당재첩),경상남도 하동군 하동읍 섬진강대로 2532-10,소매업; 자동차 제외,35.0897378,127.717982
국시방,경상남도 하동군 옥종면 옥종중앙길 63,음식점 및 주점업,35.1809927724,127.8794470701
국시방,경상남도 하동군 옥종면 옥종중앙길 63 국시방,음식점 및 주점업,35.1809886,127.8794479
하동세란의원,경상남도 하동군 하동읍 경서대로 162,보건업,35.0693299,127.7510839
쌍용가든,경상남도 하동군 화개면 화개로 478,음식점 및 주점업,35.2260939,127.6413676
그린장,경상남도 하동군 금남면 섬진강대로 971,숙박업,34.9966837,127.8092495
다윤찻집,경상남도 하동군 화개면 화개로 109,소매업; 자동차 제외,35.1972892,127.6275397
하동남해가맹점,경상남도 하동군 하동읍 군청로 137,소매업; 자동차 제외,35.0614184,127.7617412
아트랜드,경상남도 하동군 금남면 태봉길 6-1,교육 서비스업,34.9667332,127.85357
아트랜드,경상남도 하동군 금남면 태봉길 6-1,교육 서비스업,34.9667325623,127.8535699239
청심사 청심다원,경상남도 하동군 악양면 정서길 73-46,식료품 제조업,35.1646884,127.6996264
경아레코드,경상남도 하동군 진교면 민다리길 57,소매업; 자동차 제외,35.0269637,127.9033968
EDP하동점,경상남도 하동군 횡천면 마치길 21-9,도매 및 상품 중개업,35.0849321,127.8025578
금강타일,경상남도 하동군 하동읍 경서대로 106,소매업; 자동차 제외,35.0649587,127.7480991
수류화개,경상남도 하동군 화개면 쌍계로 70-12 수류화개,숙박업,35.1922824,127.6276721
천년지향,경상남도 하동군 화개면 호동길 52,소매업; 자동차 제외,35.2640275,127.6320783
영순발전소,경상남도 하동군 금남면 태봉길 19-66 1,"전기, 가스, 증기 및 공기 조절 공급업",34.9713242,127.8557251
하동해법학원,경상남도 하동군 하동읍 시장3길 10-2,교육 서비스업,35.0688229,127.7495068
해성,경상남도 하동군 고전면 노화길 21-5,도매 및 상품 중개업,35.0228681,127.7917978
서희꽃방,경상남도 하동군 하동읍 경서대로 219-1,소매업; 자동차 제외,35.07179615,127.7562025371
세형제농장,경상남도 하동군 하동읍 화심길 236-20,도매 및 상품 중개업,35.0913647379,127.7262202518
세형제농장,경상남도 하동군 하동읍 화심길 236-20 세형제농장,도매 및 상품 중개업,35.0913647,127.7262205
롯데우유（푸르밀）,경상남도 하동군 하동읍 경서대로 290,도매 및 상품 중개업,35.0711404,127.7630287
대한통운북천,경상남도 하동군 북천면 금천길 20 대한통운 북천출장소,창고 및 운송관련 서비스업,35.1165684,127.8933174
진교축산물판매센터,경상남도 하동군 진교면 진교중앙길 13-6,소매업; 자동차 제외,35.0286221,127.903209
제일전파사,경상남도 하동군 하동읍 중앙로 23,개인 및 소비용품 수리업,35.07022,127.7499641
묘한향기,경상남도 하동군 하동읍 매화골먹점길 85,소매업; 자동차 제외,35.1162325,127.7075465
모든컴퓨터,경상남도 하동군 하동읍 경서대로 128-1,개인 및 소비용품 수리업,35.0667612,127.7491841
대성농공,경상남도 하동군 옥종면 고성산동학로 689 1층,소매업; 자동차 제외,35.1635591,127.9261576
제니,"경상남도 하동군 하동읍 중앙로 45, 1층",소매업; 자동차 제외,35.0706659,127.7476275
몽글몽글,경상남도 하동군 화개면 가탄길 59,숙박업,35.2021323,127.6349672
신성건축,경상남도 하동군 진교면 경충로 1143-17,전문직별 공사업,35.0364170774,127.904052567
신성건축,경상남도 하동군 진교면 경충로 1143-17 신성건축,전문직별 공사업,35.0364171,127.9040528
큰새미,"경상남도 하동군 악양면 평사리길 54, 다동",음식점 및 주점업,35.1542144,127.688613
울산농원,경상남도 하동군 하동읍 섬진강대로 2547,소매업; 자동차 제외,35.0898071,127.715832
팡팡성인게임랜드,경상남도 하동군 하동읍 경서대로 231,스포츠 및 오락관련 서비스업,35.0716987,127.7577031
그루스터디카페 경남하동센터,경상남도 하동군 하동읍 향교1길 8,"창작, 예술 및 여가관련 서비스업",35.0682036,127.7488796
별곰캠핑힐,경상남도 하동군 청암면 사동길 2,숙박업,35.1812554618,127.7545647801
무진잡화,경상남도 하동군 화개면 쌍계로 15,소매업; 자동차 제외,35.1880103,127.6240814
동해식당,경상남도 하동군 옥종면 옥종중앙길 52-1,음식점 및 주점업,35.179907,127.8798872
미니쭈,경상남도 하동군 하동읍 산복1길 21-1,소매업; 자동차 제외,35.0782584,127.7417581
천연염색풍경,경상남도 하동군 화개면 쌍계로 14 2층,소매업; 자동차 제외,35.1881433,127.6248791
감당1호 태양광발전,경상남도 하동군 양보면 상쌍길 36-69,"전기, 가스, 증기 및 공기 조절 공급업",35.0816697,127.8208997
궁전모텔,경상남도 하동군 고전면 재첩길 31-7,숙박업,34.9962816,127.8023048
하동점 기아오토큐,경상남도 하동군 하동읍 화심길 23,개인 및 소비용품 수리업,35.0819104186,127.7382093047
평창담다농원,경상남도 하동군 청암면 감나무골길 6,소매업; 자동차 제외,35.1574648,127.7988221
희망미용실,경상남도 하동군 옥종면 옥종중앙길 49,기타 개인 서비스업,35.1797414,127.879576
헤베니케,경상남도 하동군 하동읍 중앙로 94,소매업; 자동차 제외,35.0726106,127.743023
하루해 한옥펜션,경상남도 하동군 악양면 악양서로 669-22,숙박업,35.1894491,127.7168604
아일라,경상남도 하동군 적량면 계성길 29-12,도매 및 상품 중개업,35.0747366,127.7711313
남양우유 하동가정대리점,경상남도 하동군 하동읍 경서대로 227-1,도매 및 상품 중개업,35.0718492416,127.7571989591
해성식당,경상남도 하동군 하동읍 섬진강대로 1877,음식점 및 주점업,35.0584634,127.7666799
휴 그대가거기있네,경상남도 하동군 하동읍 군청로 196,음식점 및 주점업,35.0596556,127.7675351
진교감자탕,경상남도 하동군 진교면 민다리길 43,음식점 및 주점업,35.0256551,127.9037441
카페던(Cafe Dawn),경상남도 하동군 금남면 섬진강대로 972,음식점 및 주점업,34.9971744,127.8092747
정원,경상남도 하동군 북천면 경서대로 2356-18,음식점 및 주점업,35.1103937,127.8832403
B.S COFFEE(좋은공간),경상남도 하동군 진교면 진교중앙길 14-8(진교시외버스터미널),음식점 및 주점업,35.0295276,127.9031696
금성농약사,경상남도 하동군 금성면 금성중앙길 75,소매업; 자동차 제외,34.966861,127.8008351
동원숯불갈비,경상남도 하동군 금남면 제먼당길 118,음식점 및 주점업,34.948435,127.8617261
금모래,경상남도 하동군 금남면 대도길 199,숙박업,34.9365891,127.8331651
대남농원,경상남도 하동군 하동읍 화심길 93-15,식료품 제조업,35.0853032,127.7359308
대남농원,경상남도 하동군 하동읍 화심길 93-15,식료품 제조업,35.0853031795,127.7359308365
청학골 약초,경상남도 하동군 횡천면 여의길 61,도매 및 상품 중개업,35.1142286,127.8240899
양포옷집,경상남도 하동군 진교면 선창길 24,소매업; 자동차 제외,35.0271737,127.903816
디자인쿡,경상남도 하동군 금남면 영천안길 31,사업 지원 서비스업,34.9954136,127.8080839
송산통운,경상남도 하동군 적량면 서당마을길 16-3 단독주택,사업 지원 서비스업,35.1036847,127.7611267
흙집 섬진강 풍경,"경상남도 하동군 화개면 영당2길 29-6, 1층",숙박업,35.1846781,127.6310063
흙집 섬진강 풍경,"경상남도 하동군 화개면 영당2길 29-6, 1층",숙박업,35.1843688383,127.6310275205
에츠하임,"경상남도 하동군 화개면 쌍계로 78, 1층",음식점 및 주점업,35.1931013,127.6277688
도심다원,경상남도 하동군 화개면 신촌도심길 55,식료품 제조업,35.2182120984,127.6480039721
경자이모,경상남도 하동군 화개면 쌍계로 15,소매업; 자동차 제외,35.1880103,127.6240814
소울테라피,경상남도 하동군 청암면 삼신봉로 192-13,기타 개인 서비스업,35.2441932,127.7402054
몽블랑,경상남도 하동군 하동읍 시장2길 8,음식점 및 주점업,35.0696734,127.7494542
마마빈케이크,경상남도 하동군 화개면 쌍계로 240,음식점 및 주점업,35.2050488,127.6348694
더좋은날,경상남도 하동군 화개면 범왕길 217,음식점 및 주점업,35.2719222,127.6183376
SK엔크린 오케이주유소,경상남도 하동군 금남면 경충로 282,소매업; 자동차 제외,34.9667244,127.885873
이층카페,경상남도 하동군 하동읍 군청로 48,음식점 및 주점업,35.0648594,127.7532568
솔무인모텔,경상남도 하동군 하동읍 섬진강대로 2119,숙박업,35.0641589,127.7426554
솔무인모텔,경상남도 하동군 하동읍 섬진강대로 2119,숙박업,35.064224546,127.742881146
금남시그마수학학원,경상남도 하동군 금남면 섬진강대로 648,교육 서비스업,34.9855771,127.8390551
창일모터스,경상남도 하동군 진교면 들포길 61,개인 및 소비용품 수리업,35.0193345,127.9045109
페리카나하동치킨,경상남도 하동군 하동읍 중앙2길 12,음식점 및 주점업,35.0698694,127.7470665
네네치킨,경상남도 하동군 하동읍 중앙로 18,음식점 및 주점업,35.0705341,127.750606
사회복지법인 자혜복지재단 노량실버타운,경상남도 하동군 금남면 연화마을길 49-15,사회복지 서비스업,34.9598021,127.8786855
세계화목도리주유소,경상남도 하동군 하동읍 섬진강대로 1707,소매업; 자동차 제외,35.0448369348,127.7706565447
세계화목도리주유소,경상남도 하동군 하동읍 섬진강대로 1707,소매업; 자동차 제외,35.0448279,127.7705472
좋은운수,경상남도 하동군 고전면 성평돌담길 19-3,음식점 및 주점업,35.0203562,127.8421516
계림건기,경상남도 하동군 고전면 재첩길 5-8,전문직별 공사업,34.9980461,127.8054343
다은모터스,경상남도 하동군 옥종면 옥종중앙길 87,자동차 및 트레일러 제조업,35.1832445,127.8787688
다은모터스,경상남도 하동군 옥종면 옥종중앙길 87,자동차 및 트레일러 제조업,35.1832445022,127.8787688338
서울의류,경상남도 하동군 진교면 민다리길 73,소매업; 자동차 제외,35.0282443,127.9026893
한다사 사운드 컴퍼니(H.D.S. sound company),경상남도 하동군 하동읍 경서대로 176,사업 지원 서비스업,35.0702215,127.7519683
계림건기,경상남도 하동군 고전면 재첩길 5-8 2층,전문직별 공사업,34.9980461259,127.8054340099
계림건기,경상남도 하동군 고전면 재첩길 5-8 2층,전문직별 공사업,34.9980461498,127.8054340235
LG농기계하동대리점,경상남도 하동군 진교면 진양로 15,도매 및 상품 중개업,35.0259338439,127.9021595008
LG농기계하동대리점,경상남도 하동군 진교면 진양로 15,도매 및 상품 중개업,35.0259178,127.9021202
진교렉카,경상남도 하동군 진교면 경충로 1145 진교렉카,육상 운송 및 파이프라인 운송업,35.0354504698,127.9042596676
CJ대한통운 화개점,경상남도 하동군 하동읍 선장길 10,육상 운송 및 파이프라인 운송업,35.0931599157,127.7181749367
나래시스템,경상남도 하동군 하동읍 중앙로 101 5호,도매 및 상품 중개업,35.0730016781,127.742022184
개인택시(양희수),경상남도 하동군 화개면 원탑1길 24-1,육상 운송 및 파이프라인 운송업,35.1892823,127.6266369
새진교약국,경상남도 하동군 진교면 진교중앙길 14-8,소매업; 자동차 제외,35.0295276,127.9031696
하동 섬진강 재첩 이야기,경상남도 하동군 적량면 공설운동장로 315 1층,식료품 제조업,35.0554229,127.7858831
수빈이네수산,경상남도 하동군 진교면 민다리길 58-1,소매업; 자동차 제외,35.0270859,127.9036419
계림건기,경상남도 하동군 고전면 재첩길 5-8 2층,전문직별 공사업,34.9980461,127.8054343
북천코스모스권역한우영농조합법인,경상남도 하동군 북천면 경서대로 2444,음식점 및 주점업,35.1137704,127.8925877
금오카부분정비,경상남도 하동군 진교면 민다리안길 43,개인 및 소비용품 수리업,35.0316465,127.9015815
이지영,경상남도 하동군 금남면 섬진강대로 978,음식점 및 주점업,34.9974117,127.808903
수레,경상남도 하동군 금남면 섬진강대로 931,육상 운송 및 파이프라인 운송업,34.9950807,127.8130656
계림건기,경상남도 하동군 고전면 재첩길 5-8 계림건기,전문직별 공사업,34.9980461,127.8054343
계림건기,경상남도 하동군 고전면 재첩길 5-8,전문직별 공사업,34.9981520578,127.8054169743
씨유 하동진교점,경상남도 하동군 진교면 진교중앙길 21,소매업; 자동차 제외,35.0286222,127.9025151
작은까페 곰다방,경상남도 하동군 화개면 의신길 3-2,음식점 및 주점업,35.2884298,127.6480426
밤톨,경상남도 하동군 화개면 화개로 17-1,음식점 및 주점업,35.1900283,127.6234109
참솔머리방,경상남도 하동군 하동읍 중서2길 1,기타 개인 서비스업,35.0713332,127.7463601
바다양푼이동태탕,경상남도 하동군 진교면 경충로 1053,음식점 및 주점업,35.02760986,127.9052673077
원더풀명품찹쌀꽈배기,경상남도 하동군 하동읍 중앙로 31,음식점 및 주점업,35.0704482,127.7491631
하동커텐장식,경상남도 하동군 하동읍 시장1길 28,소매업; 자동차 제외,35.0682982,127.7489304
엘지미래전자,경상남도 하동군 하동읍 군청로 139,개인 및 소비용품 수리업,35.0614059115,127.7621016028
가나안미용실,경상남도 하동군 하동읍 송림1길 3,기타 개인 서비스업,35.0649039,127.7483506
가나안미용실,경상남도 하동군 하동읍 송림1길 3,기타 개인 서비스업,35.0649097835,127.7483639687
향촌숯불갈비,경상남도 하동군 옥종면 덕천로 20,음식점 및 주점업,35.1826971,127.8812471
화개철물건재,"경상남도 하동군 화개면 화개로 1, 1층",소매업; 자동차 제외,35.1891921,127.622248
우주개발,경상남도 하동군 진교면 구송로 584-12,전문직별 공사업,35.0288408,127.9238156
횡천멕시칸,경상남도 하동군 횡천면 경서대로 1149,음식점 및 주점업,35.1093004,127.8113517
정자미곡상회,경상남도 하동군 하동읍 시장1길 9,소매업; 자동차 제외,35.0700558,127.7490223
김밥이야기,경상남도 하동군 진교면 진교중앙길 21,음식점 및 주점업,35.0286222,127.9025151
빨간풍차,경상남도 하동군 금남면 대도길 61,음식점 및 주점업,34.9280341,127.8341845
코끼리를 삼킨 보아뱀,경상남도 하동군 진교면 진교막곡길 1 301호,교육 서비스업,35.0273637,127.902295
진미,경상남도 하동군 하동읍 시장2길 3,소매업; 자동차 제외,35.0698212061,127.7490716466
진미,경상남도 하동군 하동읍 시장2길 3 진미,소매업; 자동차 제외,35.0698212,127.7490719
삼육유기농자연식품,경상남도 하동군 화개면 화개로 18-4,소매업; 자동차 제외,35.1899488,127.6239098
섬진강 옛이야기,경상남도 하동군 악양면 악양동로 9 섬진강옛이야기,음식점 및 주점업,35.1339145,127.6952148
모담상회,경상남도 하동군 진교면 민다리길 56-1,소매업; 자동차 제외,35.02689,127.9037437
지리산향기,경상남도 하동군 화개면 의신길 20,소매업; 자동차 제외,35.28945,127.6476872
중앙식당,경상남도 하동군 진교면 민다리안길 106,음식점 및 주점업,35.0267524,127.9028897
다래식당,경상남도 하동군 금남면 섬진강대로 648,음식점 및 주점업,34.9855771,127.8390551
순천집,경상남도 하동군 하동읍 향교1길 39,음식점 및 주점업,35.0698439,127.7459475
어부촌,경상남도 하동군 진교면 강변길 27,음식점 및 주점업,35.0315482,127.902855
남해식당,경상남도 하동군 진교면 민다리길 78-1,음식점 및 주점업,35.0286845,127.9028424
광명전기,경상남도 하동군 진교면 민다리길 59,소매업; 자동차 제외,35.0271693,127.9033008
처갓집양념치킨 금남점,경상남도 하동군 금남면 섬진강대로 972,음식점 및 주점업,34.9971744,127.8092747
그니세차장,경상남도 하동군 진교면 민다리길 93,개인 및 소비용품 수리업,35.0299642,127.9017518
생생한의원,경상남도 하동군 진교면 진교중앙길 13-8,보건업,35.0286094,127.9033274
개인택시,경상남도 하동군 악양면 성두길 58-6,육상 운송 및 파이프라인 운송업,35.1549799,127.7140445
한진농약사,경상남도 하동군 진교면 민다리길 51-2,도매 및 상품 중개업,35.0265890461,127.9036529855
아름치과,경상남도 하동군 진교면 진교중앙길 13,보건업,35.0288857,127.9034576
진교농약사,경상남도 하동군 진교면 민다리길 49,소매업; 자동차 제외,35.0261284079,127.9037085101
자연산장,경상남도 하동군 청암면 청학동길 15-16,음식점 및 주점업,35.2430939,127.7103503
장안가구,경상남도 하동군 하동읍 경서대로 158,소매업; 자동차 제외,35.0689498,127.750763
푸짐한밥상,경상남도 하동군 진교면 구곡1길 23,음식점 및 주점업,35.013998,127.9094836
서울안과의원,경상남도 하동군 하동읍 중앙로 15,보건업,35.0701547,127.7508472
개인택시,경상남도 하동군 화개면 화개로 985-1,육상 운송 및 파이프라인 운송업,35.2632287,127.6392044
양포그릇,경상남도 하동군 진교면 선창길 24,소매업; 자동차 제외,35.0271737,127.903816
하동LPG충전소,경상남도 하동군 진교면 경충로 594,소매업; 자동차 제외,34.9912400147,127.8988155263
박약국,경상남도 하동군 옥종면 옥종중앙길 60-1,소매업; 자동차 제외,35.1806602,127.8800076
석정,경상남도 하동군 진교면 민다리길 72,음식점 및 주점업,35.0281795,127.9031147
장마루,경상남도 하동군 옥종면 옥종중앙길 67,음식점 및 주점업,35.181238,127.8794218
지티타이어하동점,경상남도 하동군 적량면 대티길 66,소매업; 자동차 제외,35.0792218,127.7804022
밤시(군밤홍시),경상남도 하동군 고전면 명교길 78,도매 및 상품 중개업,35.0341932,127.8466194
중국관,경상남도 하동군 옥종면 옥종시장길 2,음식점 및 주점업,35.1816819,127.879631
풀꽃,경상남도 하동군 하동읍 시장1길 8-5,소매업; 자동차 제외,35.069921,127.7477891
천냥하우스 DC마트,경상남도 하동군 진교면 민다리길 70-1,소매업; 자동차 제외,35.0280554,127.9031614
영광상회,경상남도 하동군 하동읍 시장1길 14,소매업; 자동차 제외,35.069572,127.7487435
동정산장,경상남도 하동군 화개면 화개로 796,음식점 및 주점업,35.2531688,127.6401064
조은실비,경상남도 하동군 진교면 진양로 5,음식점 및 주점업,35.0267022,127.9032584
우리동네아로마,경상남도 하동군 하동읍 중앙1길 9-1,소매업; 자동차 제외,35.0700242056,127.7476228311
섬진강가든,경상남도 하동군 고전면 재첩길 189,음식점 및 주점업,35.0006896,127.7902147
제일안경,경상남도 하동군 하동읍 중앙로 28,소매업; 자동차 제외,35.0706388,127.749529
삼진떡방앗간,경상남도 하동군 옥종면 은행나무길 75,식료품 제조업,35.1804519,127.8791468
장수한의원,경상남도 하동군 진교면 민다리길 83-1,보건업,35.0291292,127.9022716
도앤효,경상남도 하동군 화개면 화개로 141,소매업; 자동차 제외,35.1997953,127.6294896
수정정식당,경상남도 하동군 북천면 가리골길 5,음식점 및 주점업,35.1150709,127.8940845
강플라워,경상남도 하동군 진교면 민다리길 68-1,소매업; 자동차 제외,35.027909,127.9034622
고향고추방앗간,경상남도 하동군 진교면 민다리길 62-10,식료품 제조업,35.0274244,127.9039104
청암분식식당,경상남도 하동군 청암면 청학로 669,음식점 및 주점업,35.155933,127.7992247
진교스토아 식육점,경상남도 하동군 진교면 민다리길 47,소매업; 자동차 제외,35.0259966,127.9038589
온천가든,경상남도 하동군 옥종면 세종태실로 567,음식점 및 주점업,35.1566344,127.8926459
유성상회,경상남도 하동군 하동읍 청년회관길 10,소매업; 자동차 제외,35.0715861,127.7479576
한솔종합상사,경상남도 하동군 하동읍 고서길 61,소매업; 자동차 제외,35.0917217,127.7372142
편의점(불멸의 글램핑),경상남도 하동군 금남면 대도길 43 불멸의 글램핑 편의점,소매업; 자동차 제외,34.9281473,127.8321942
참사랑건식,경상남도 하동군 하동읍 중앙로 18,소매업; 자동차 제외,35.0705341,127.750606
찬새미송어횟집,경상남도 하동군 악양면 악양서로 618-3,음식점 및 주점업,35.1835918,127.717951
양보농기계,경상남도 하동군 양보면 진양로 771,기타 기계 및 장비 제조업,35.0499877,127.8444882
남해해녀수산,경상남도 하동군 금남면 제먼당길 110,소매업; 자동차 제외,34.9484846,127.8607629
부산빨간오뎅,경상남도 하동군 진교면 민다리길 53,음식점 및 주점업,35.0266711,127.9035561
부천횟집,경상남도 하동군 금남면 중평해안길 205,음식점 및 주점업,34.9759839,127.9103134
드웰,경상남도 하동군 화개면 신촌도심길 72-1,숙박업,35.2168152926,127.6482419679
드웰,경상남도 하동군 화개면 신촌도심길 72-1,숙박업,35.2168152573,127.6482419533
꽃보다 할매,경상남도 하동군 하동읍 중앙2길 12,음식점 및 주점업,35.0698694,127.7470665
대성철물점,경상남도 하동군 옥종면 옥종중앙길 76,소매업; 자동차 제외,35.1821162,127.8794446
남경춘,경상남도 하동군 진교면 경충로 1113,음식점 및 주점업,35.0325449,127.9046354
여인방,경상남도 하동군 진교면 민다리길 55,소매업; 자동차 제외,35.0267615,127.9035126
광명당한약방,경상남도 하동군 하동읍 중앙로 17 2층,소매업; 자동차 제외,35.0702032,127.7506494
석연,경상남도 하동군 화개면 쌍계로 332,음식점 및 주점업,35.2106301,127.6403353
성창당한의원,경상남도 하동군 하동읍 중앙로 19-1,보건업,35.0701353,127.7502759
엄지검지 피아노 교습소,경상남도 하동군 금남면 새장터길 5,교육 서비스업,34.9868127121,127.8374497662
유로유통,경상남도 하동군 하동읍 경서대로 176,소매업; 자동차 제외,35.0702215,127.7519683
쌍계전통팥죽,경상남도 하동군 화개면 쌍계로 555,음식점 및 주점업,35.2288964,127.6436774
재단법인 하동세계차엑스포조직위원회,경상남도 하동군 화개면 쌍계로 71-8,부동산업,35.1935419,127.6275225
"제이원(J-won)테크, 제이원(J-won)건축","경상남도 하동군 하동읍 화심길 259 제이원테크,제이원건축",금속 가공제품 제조업; 기계 및 가구 제외,35.0890767,127.7243183
지리산골 마농장,경상남도 하동군 화개면 쌍계로 19-1,도매 및 상품 중개업,35.1882917,127.6241195
금오산관광농원,경상남도 하동군 진교면 구고속도로 374-30 금오산관광농원눈썰매장,숙박업,35.0160365,127.8613047
금오산관광농원,경상남도 하동군 진교면 구고속도로 374-30,숙박업,35.0160365316,127.8613046293
청담타이 마사지,"경상남도 하동군 하동읍 경서대로 162, 4층 402호(명성빌딩)",소매업; 자동차 제외,35.0693299,127.7510839
풀뱅상베이커리,"경상남도 하동군 하동읍 시장1길 26-18, 1층",음식점 및 주점업,35.0688793,127.7484192
토속돼지국밥,경상남도 하동군 진교면 하평안길 28,음식점 및 주점업,35.0232106302,127.9055646098
YHart,경상남도 하동군 청암면 대밭땀길 30-42,교육 서비스업,35.2404275364,127.723063628
한우리 독서토론교실,경상남도 하동군 하동읍 청년회관길 8-12 한우리독서,교육 서비스업,35.0715346,127.7483718
고려페인트,경상남도 하동군 하동읍 시장1길 23,소매업; 자동차 제외,35.0686378,127.7491503
횡천철물그릇,경상남도 하동군 횡천면 문화2길 15,소매업; 자동차 제외,35.1087208,127.8100053
통파이브 경남하동점,경상남도 하동군 악양면 악양서로 326,음식점 및 주점업,35.1596821,127.707491
서울종묘하동대리점,경상남도 하동군 하동읍 시장2길 15-4,소매업; 자동차 제외,35.0701031335,127.749992733
하동복싱체육관,경상남도 하동군 하동읍 시장3길 8,스포츠 및 오락관련 서비스업,35.0691875,127.7496019
남도모텔,경상남도 하동군 화개면 섬진강대로 3917,숙박업,35.1795742,127.6313205
오성가든,경상남도 하동군 청암면 청학로 1646,음식점 및 주점업,35.2043947,127.7781998
청 솔,경상남도 하동군 화개면 쌍계로 15 청솔,소매업; 자동차 제외,35.1880103,127.6240814
명숙이네밥상,경상남도 하동군 하동읍 시장1길 26-42,음식점 및 주점업,35.069671,127.7476343
숲속정원펜션,경상남도 하동군 화개면 벽소령길 1 숲속정원펜션,숙박업,35.2895656761,127.644631019
숲속정원펜션,경상남도 하동군 화개면 벽소령길 1,숙박업,35.2895656761,127.644631019
진주활어센타,경상남도 하동군 진교면 민다리길 62,도매 및 상품 중개업,35.0272836,127.9035452
남선떡방앗간,경상남도 하동군 하동읍 중앙로 22,식료품 제조업,35.070452,127.7502131
코코호도 하동점,경상남도 하동군 하동읍 경서대로 126-1,음식점 및 주점업,35.0665731,127.7490889
비앤디미용학원,경남 하동군 하동읍 중앙로 49,교육 서비스업,35.07071,127.7470336
여로장여관,경상남도 하동군 하동읍 경서대로 233,숙박업,35.0717252842,127.7579528751
화개녹차김밥,경상남도 하동군 화개면 화개로 9,음식점 및 주점업,35.1895611,127.6227672
수평선횟집,경상남도 하동군 금남면 노량해안길 163-5,음식점 및 주점업,34.9473899,127.872981
옥종재가복지센터,경상남도 하동군 옥종면 옥종중앙길 61-1,사회복지 서비스업,35.1808664,127.8792916
지시랑공방,경남 하동군 하동읍 송림1길 10,기타 개인 서비스업,35.0643807,127.7479777
목골옷집,경상남도 하동군 진교면 선창길 24,도매 및 상품 중개업,35.0271737,127.903816
광명태양광발전소,경상남도 하동군 고전면 잔너리길 46,"전기, 가스, 증기 및 공기 조절 공급업",35.0099140818,127.8223856298
광명태양광발전소,경상남도 하동군 고전면 잔너리길 46,"전기, 가스, 증기 및 공기 조절 공급업",35.0099141,127.8223856
시소,경상남도 하동군 하동읍 남당길 50,소매업; 자동차 제외,35.0656237,127.7481799
은하수,경남 하동군 악양면 정서길 63-10,소매업; 자동차 제외,35.1644124,127.7040205
부부상회,경남 하동군 악양면 평사리길 44,소매업; 자동차 제외,35.153603,127.6892917
사랑미용실,경상남도 하동군 금성면 신도길 120,기타 개인 서비스업,34.9640372,127.7914584
대광수중펌프,경상남도 하동군 하동읍 소재1길 9(무지개맨션),전문직별 공사업,35.0723031,127.7556043
부광하우징,경상남도 하동군 금남면 섬진강대로 974-18,소매업; 자동차 제외,34.9973644749,127.8105549567
부광하우징,경상남도 하동군 금남면 섬진강대로 974-18,소매업; 자동차 제외,34.9973645088,127.8105549278
하동오약국지정소,경상남도 하동군 악양면 악양서로 361,소매업; 자동차 제외,35.1625058,127.7093528
싱싱회센타,경상남도 하동군 하동읍 시장1길 18-3,소매업; 자동차 제외,35.0692999,127.7482463
플랫아마란스,경상남도 하동군 금성면 신도길 136,음식점 및 주점업,34.9649332,127.7902977
대명장 맛도랑,경남 하동군 금성면 명덕길 31,음식점 및 주점업,34.9598723,127.8150087
금화전기자재,경상남도 하동군 금성면 금성로 290-6,전문직별 공사업,34.962252822,127.7825720987
숙이네,경상남도 하동군 화개면 쌍계로 15,음식점 및 주점업,35.1880103,127.6240814
금화전기자재,경상남도 하동군 금성면 금성로 290-6,전문직별 공사업,34.9622534,127.782573
한미건설조경주식회사,경남 하동군 하동읍 중앙로 31-3,기타 개인 서비스업,35.0705089,127.748951
청솔,경상남도 하동군 화개면 쌍계로 15,음식점 및 주점업,35.1880103,127.6240814
생생한의원,경남 하동군 진교면 진교중앙길 13-8,보건업,35.0286094,127.9033274
산곡차방,경상남도 하동군 화개면 쌍계로 15,소매업; 자동차 제외,35.1880103,127.6240814
"화장품,옷 옷수선",경남 하동군 하동읍 시장1길 8-3,소매업; 자동차 제외,35.0701501,127.7479919
헬스플러스,경상남도 하동군 고전면 공설운동장로 535-7,도매 및 상품 중개업,35.037425,127.7919858
알프스 하동 Drone,경남 하동군 북천면 이명골길 14-29,기타 개인 서비스업,35.0945594,127.8957303
명인당 약초,경상남도 하동군 화개면 쌍계로 15,소매업; 자동차 제외,35.1880103,127.6240814
햇빛농원,경상남도 하동군 화개면 쌍계로 15,농업,35.1880103,127.6240814
정환다원,경상남도 하동군 화개면 쌍계로 15,소매업; 자동차 제외,35.1880103,127.6240814
장터호떡,경상남도 하동군 화개면 쌍계로 15,음식점 및 주점업,35.1880103,127.6240814
우리 농산물,경상남도 하동군 화개면 쌍계로 15,농업,35.1880103,127.6240814
화개 대장간,경상남도 하동군 화개면 쌍계로 15,소매업; 자동차 제외,35.1880103,127.6240814
지리산 산양삼,경상남도 하동군 화개면 쌍계로 15,도매 및 상품 중개업,35.1880103,127.6240814
칡생즙약초,경상남도 하동군 화개면 쌍계로 15,소매업; 자동차 제외,35.1880103,127.6240814
화개장터 민속공예,경상남도 하동군 화개면 쌍계로 15,소매업; 자동차 제외,35.1880103,127.6240814
천년농원,경상남도 하동군 화개면 쌍계로 15,농업,35.1880103,127.6240814
백운농산물,경상남도 하동군 화개면 쌍계로 15,농업,35.1880103,127.6240814
신흥상회,경상남도 하동군 화개면 쌍계로 15,농업,35.1880103,127.6240814
법하상회,경상남도 하동군 화개면 쌍계로 15,농업,35.1880103,127.6240814
하동상회,경상남도 하동군 화개면 쌍계로 15,농업,35.1880103,127.6240814
꽃 묘목농원,경상남도 하동군 화개면 쌍계로 15,소매업; 자동차 제외,35.1880103,127.6240814
우리공방,경상남도 하동군 화개면 쌍계로 15,소매업; 자동차 제외,35.1880103,127.6240814
진교태권도장,경상남도 하동군 진교면 민다리길 142,교육 서비스업,35.0340383,127.9001959
경전쉼터식당,경상남도 하동군 고전면 재첩길 187,음식점 및 주점업,35.000444,127.7902377
옥종가스,경상남도 하동군 옥종면 옥단로 1155,소매업; 자동차 제외,35.1953050779,127.8728313063
신선마을박단댁,경상남도 하동군 화개면 화개로 14,소매업; 자동차 제외,35.1895997,127.6232874
금오산참숯가마찜질방,경상남도 하동군 금남면 경충로 427-114,기타 개인 서비스업,34.9751607,127.8874848
보람이네 농원,경상남도 하동군 화개면 쌍계로 15,도매 및 상품 중개업,35.1880103,127.6240814
화개버섯,경상남도 하동군 화개면 용강길 47,소매업; 자동차 제외,35.2333191,127.6406301
진대패불패,경상남도 하동군 하동읍 중앙로 12,음식점 및 주점업,35.0706574,127.751141
탁갈비,경상남도 하동군 금남면 섬진강대로 973-10,음식점 및 주점업,34.9966468,127.8088656
양어장식당,경상남도 하동군 화개면 화개로 711,음식점 및 주점업,35.2459756,127.6419899
한국통신상사,경상남도 하동군 금성면 금성로 342,소매업; 자동차 제외,34.9589471037,127.7846572833
우리문구,경상남도 하동군 진교면 민다리길 136,소매업; 자동차 제외,35.0335647379,127.9003378378
섬진강 단비 재첩,"경상남도 하동군 하동읍 시장1길 20-3, 1층",소매업; 자동차 제외,35.0691809,127.7481647
드웰,경남 하동군 화개면 신촌도심길 72,숙박업,35.216998,127.6484682
이모션펜션,경남 하동군 화개면 정금대비길 25-7,숙박업,35.210891,127.6425649
소풍,경상남도 하동군 악양면 섬진강대로 3096,음식점 및 주점업,35.1328535,127.6956306
자매분식,경남 하동군 하동읍 너뱅이길 35,음식점 및 주점업,35.0642126,127.7605978
너뱅이,경남 하동군 하동읍 송림3길 31,음식점 및 주점업,35.0609746,127.7490727
훈이농산물,경상남도 하동군 화개면 상덕길 19,도매 및 상품 중개업,35.17835,127.6343139
현대자동차타이어,경상남도 하동군 하동읍 군청로 149-2,개인 및 소비용품 수리업,35.0612781465,127.7633237778
현대자동차타이어,경상남도 하동군 하동읍 군청로 149-2,개인 및 소비용품 수리업,35.0612781,127.7633238
윤슬뷔페,경상남도 하동군 화개면 쌍계로 26,음식점 및 주점업,35.1890403,127.6248927
발꾸미 바닷가횟집,경상남도 하동군 진교면 발꾸미길 102-2,음식점 및 주점업,35.00066,127.9200478
피씨닥터,경남 하동군 진교면 진교리 302-145,기타 개인 서비스업,35.0256601126,127.9044651057
피씨닥터,경남 하동군 진교면 진교리 302-145,기타 개인 서비스업,35.0256283973,127.9043342405
스튜디오 미소감,경남 하동군 하동읍 중앙1길 4,기타 개인 서비스업,35.0704838,127.7475753
카페리화(cafe리화),경남 하동군 하동읍 섬진강대로 2496,음식점 및 주점업,35.088207,127.7212244
싱싱농원,경상남도 하동군 하동읍 신기궁항길 61,소매업; 자동차 제외,35.0590999,127.7750374
골밭농원,경남 하동군 하동읍 선장길 33-10,소매업; 자동차 제외,35.0954699,127.7181749
윤슬,경남 하동군 화개면 화개로 18-2,음식점 및 주점업,35.1897566,127.6237543
욱's 김밥,경상남도 하동군 하동읍 경서대로 130,음식점 및 주점업,35.0669152,127.7491883
화개장터빵,경상남도 하동군 화개면 쌍계로 15,도매 및 상품 중개업,35.1880103,127.6240814
나팔수산물 직판장,경상남도 하동군 금성면 나팔윗길 43-5,소매업; 자동차 제외,34.9457661,127.7808839
지리산꽃꿀흑백사진관,경상남도 하동군 화개면 화개로 1421,"기타 전문, 과학 및 기술 서비스업",35.2888813282,127.6469307939
지리산꽃꿀흑백사진관,경상남도 하동군 화개면 화개로 1421,"기타 전문, 과학 및 기술 서비스업",35.2888919,127.6468941
에어컨uncle,경상남도 하동군 진교면 사등길 47-10,개인 및 소비용품 수리업,35.0081415204,127.9059862084
에어컨uncle,경상남도 하동군 진교면 사등길 47-10,개인 및 소비용품 수리업,35.0081431,127.9060057
지리산약초농산,경상남도 하동군 하동읍 시장1길 9-1,도매 및 상품 중개업,35.0700978,127.7488744
단천민박,경상남도 하동군 화개면 단천길 144-1,숙박업,35.2736545,127.6632708
치킨의민족 하동진교점,경상남도 하동군 진교면 민다리길 87,음식점 및 주점업,35.0295195,127.902035
우드홀릭,경상남도 하동군 금성면 명덕길 103-3,가구 제조업,34.9545500678,127.8138735477
우드홀릭,경상남도 하동군 금성면 명덕길 103-3,가구 제조업,34.9546344,127.8138423
하동커피,경상남도 하동군 하동읍 섬진강대로 2571,음식점 및 주점업,35.0910479,127.7136816
씨유 하동비바체리조트점,경상남도 하동군 청암면 청학로 876,소매업; 자동차 제외,35.1626526,127.7827859
석천민박,경상남도 하동군 화개면 쌍계로 571-1,숙박업,35.2299508,127.6432827
정성드리,경남 하동군 금남면 섬진강대로 650-3,식료품 제조업,34.9858721,127.8388473
24시동바리해장국설렁탕,경상남도 하동군 하동읍 경서대로 162,음식점 및 주점업,35.0693299,127.7510839
고하정미소,경남 하동군 고전면 하동읍성로 560-1,식료품 제조업,35.0232589,127.8318344
섬진강재첩국,경남 하동군 금남면 경충로 503,음식점 및 주점업,34.9831634,127.8969875
옥산맛집,경상남도 하동군 옥종면 옥단로 856,음식점 및 주점업,35.1744625,127.8810298
신박힐링캠프,경상남도 하동군 적량면 삼화실로 759,소매업; 자동차 제외,35.1385259,127.7586309
은솔카페,경상남도 하동군 화개면 원탑2길 15,음식점 및 주점업,35.1872954,127.6259974
옐로우켄넬,경상남도 하동군 화개면 상덕길 41,도매 및 상품 중개업,35.1799517,127.6353964
르노코리아자동차 서비스코너 하동점,경상남도 하동군 하동읍 경서대로 222,개인 및 소비용품 수리업,35.0713405,127.7565201
고전매실유과,경상남도 하동군 고전면 아정길 51,식료품 제조업,35.0258449,127.8145879
삼선된장집,경남 하동군 청암면 청학로 2339,음식점 및 주점업,35.2349122,127.7250901
부화식당,경남 하동군 진교면 선창길 24-1,음식점 및 주점업,35.0264212,127.9044094
멍냥편의점,경남 하동군 하동읍 중앙로 24,소매업; 자동차 제외,35.0704308862,127.7501055848
평사리건강원,경상남도 하동군 악양면 평사리길 56,식료품 제조업,35.1544182,127.6884894
제일다방,"경상남도 하동군 하동읍 중앙로 55, 2층",음식점 및 주점업,35.0709018,127.7465649
뽀야네농원,경상남도 하동군 옥종면 멧골길 61-12,소매업; 자동차 제외,35.1801229,127.8982332
향원식당,경상남도 하동군 화개면 쌍계로 14,음식점 및 주점업,35.1881433,127.6248791
금석당,경상남도 하동군 하동읍 시장1길 7 1층,소매업; 자동차 제외,35.0701976,127.7488793
금성공업사,경상남도 하동군 금성면 광포길 60,개인 및 소비용품 수리업,34.9638252585,127.8056377497
금성공업사,경상남도 하동군 금성면 광포길 60,개인 및 소비용품 수리업,34.9638256246,127.8056375621
호텔봄봄(HOTEL BOMBOM),경남 하동군 고전면 재첩길 50,숙박업,34.9971821573,127.8009602919
호텔봄봄(HOTEL BOMBOM),경남 하동군 고전면 재첩길 50,숙박업,34.9971819,127.800961
하동읍성,경상남도 하동군 고전면 하동읍성로 21-9,음식점 및 주점업,34.9996936,127.8063693
범바구민박,경상남도 하동군 하동읍 섬진강대로 2708-14,숙박업,35.1013270499,127.7053624079
호박패션몰,"경상남도 하동군 하동읍 시장1길 11-2, 1층",소매업; 자동차 제외,35.0696068,127.7489537
청송미용실,경상남도 하동군 하동읍 송림1길 24-1,기타 개인 서비스업,35.0631731608,127.7475638523
청송미용실,경상남도 하동군 하동읍 송림1길 24-1,기타 개인 서비스업,35.0631771,127.7475506
남해농원,경상남도 하동군 금남면 중평해안길 242,소매업; 자동차 제외,34.9784003,127.9098008
세븐일레븐 하동금오산1호점,경상남도 하동군 금남면 경충로 461-7,소매업; 자동차 제외,34.9808385,127.8952769
하동자동차정비,경상남도 하동군 적량면 대티길 66,개인 및 소비용품 수리업,35.0792218,127.7804022
대운알앤에이치 주식회사(DAEWOONR해)(지점,경상남도 하동군 고전면 재첩길 5-8,음식점 및 주점업,34.9980461,127.8054343
가을정원,경상남도 하동군 진교면 들포길 149,음식점 및 주점업,35.0130193,127.9096936
나이스커큐민,경남 하동군 하동읍 중앙로 41,소매업; 자동차 제외,35.070601,127.7480828
옥종주유소,경남 하동군 옥종면 옥종중앙길 1,소매업; 자동차 제외,35.1753958,127.8800208
평사리 토지장터주막,경상남도 하동군 악양면 평사리길 56-15,음식점 및 주점업,35.1551753,127.6890298
한국타이어하남대리점,경상남도 하동군 진교면 경충로 1067,자동차 및 부품 판매업,35.0287648,127.9046639
영진가스설비공사,경상남도 하동군 하동읍 밤골길 17,소매업; 자동차 제외,35.082423664,127.7405566043
월봉자원,경상남도 하동군 옥종면 옥종중앙길 119,소매업; 자동차 제외,35.185570024,127.8773113971
현대농약종묘사,경상남도 하동군 하동읍 경서대로 159 현대농약종묘사,소매업; 자동차 제외,35.0693012,127.7504542
해피타임,경상남도 하동군 옥종면 옥종중앙길 54,소매업; 자동차 제외,35.1801795,127.8798333
현대농약종묘사,경상남도 하동군 하동읍 경서대로 159,소매업; 자동차 제외,35.0693005156,127.7504539595
월드부동산중개,경상남도 하동군 금성면 산업로 580-24,부동산업,34.9634438,127.7825636
월드부동산중개,경상남도 하동군 금성면 산업로 580-24,부동산업,34.9634437562,127.7825632956
한국신발,"경상남도 하동군 진교면 민다리안길 92, 1층",소매업; 자동차 제외,35.0278007,127.902141
한국신발,"경상남도 하동군 진교면 민다리안길 92, 1층",소매업; 자동차 제외,35.0278258446,127.9021537962
벗들이랑김밥,경상남도 하동군 하동읍 시장1길 18,음식점 및 주점업,35.069231887,127.7488119146
농업회사법인유한회사지리산산양산삼,경상남도 하동군 청암면 청학로 2017-45,농업,35.2184158,127.7522183
지리산 하늘펜션,경상남도 하동군 청암면 청학로 2466-4(지리산하늘펜션),소매업; 자동차 제외,35.2403272,127.715709
다인공예,경남 하동군 하동읍 연화길 38,소매업; 자동차 제외,35.0742950812,127.7521923942
다인공예,경남 하동군 하동읍 연화길 38,소매업; 자동차 제외,35.0742951,127.7521927
솔빛,경상남도 하동군 화개면 섬진강대로 3874-46,숙박업,35.1781835,127.6370615
시장기름집,경상남도 하동군 하동읍 시장1길 20-3,소매업; 자동차 제외,35.0691809,127.7481647
미락가,경상남도 하동군 금성면 명덕길 8,음식점 및 주점업,34.96152,127.8164408
꽃단이,경상남도 하동군 하동읍 경서대로 250-18,음식점 및 주점업,35.070766,127.7613406
네일은맑음(네일뷰티샵),경상남도 하동군 진교면 민다리길 42-1,기타 개인 서비스업,35.0256284,127.9043345
나마스떼 민박,경상남도 하동군 적량면 서촌길 39-1,숙박업,35.1198781,127.763523
나마스떼 민박,경상남도 하동군 적량면 서촌길 39-1,숙박업,35.1199992463,127.763591789
천혜향,경상남도 하동군 화개면 쌍계로 24,음식점 및 주점업,35.1888322,127.6247791
엘탑학원,경상남도 하동군 진교면 민다리길 118,교육 서비스업,35.0320869,127.9011715
시산,경남 하동군 화개면 쌍계로 571-11,소매업; 자동차 제외,35.2295119,127.64314
시산,경남 하동군 화개면 쌍계로 571-11,소매업; 자동차 제외,35.2295119315,127.6431397414
청산농원,경상남도 하동군 하동읍 섬진강대로 2471-4,농업,35.0860718,127.7225734
상촌횟집,경상남도 하동군 금남면 경충로 499,음식점 및 주점업,34.9826388,127.8970158
용 종합스포츠,경상남도 하동군 하동읍 향교1길 25,소매업; 자동차 제외,35.0690444,127.7472547
(지리산 가는 길에) 행복딸기,경남 하동군 옥종면 한계길 177,농업,35.1667086,127.900406
언더브릿지,경남 하동군 금남면 노량해안길 35,음식점 및 주점업,34.9481559,127.862612
수함요새,경남 하동군 화개면 삼신길 9-43,숙박업,35.2093148303,127.6334910942
수함요새,경남 하동군 화개면 삼신길 9-43,숙박업,35.2093404,127.6332967
브릿지온,경남 하동군 하동읍 경서대로 218,전문 서비스업,35.0714048409,127.7560924714
브릿지온,경남 하동군 하동읍 경서대로 218,전문 서비스업,35.0714047793,127.756092513
신나는 피카소 미술교습소,경상남도 하동군 옥종면 옥종중앙길 75 1층,교육 서비스업,35.1820644,127.8791837
하동제일산업,경상남도 하동군 금성면 명덕윗담길 8,소매업; 자동차 제외,34.9626212342,127.8172054543
제일칼국수,"경상남도 하동군 진교면 선창길 24, 15-2호 16호(진교공설시장)",음식점 및 주점업,35.0271737,127.903816
화개세탁소,경상남도 하동군 화개면 화개로 10-1,기타 개인 서비스업,35.1894246,127.6230116
교촌치킨하동점,경상남도 하동군 하동읍 시장3길 6 ㅣ층,음식점 및 주점업,35.0693667,127.749638
네일앤뷰티,경상남도 하동군 하동읍 경서대로 130,기타 개인 서비스업,35.0669152,127.7491883
왕가네,경상남도 하동군 하동읍 경서대로 189,음식점 및 주점업,35.071119,127.7530242
기업명상교육기관 Project in Meditation,경상남도 하동군 화개면 백혜길 17,교육 서비스업,35.2030814924,127.6351900049
하사랑 언어재활센터,경상남도 하동군 하동읍 향교1길 49,사회복지 서비스업,35.0702822,127.7452567
토담농가,경남 하동군 화개면 부춘길 166,식료품 제조업,35.1754175129,127.6577415929
세븐일레븐 하동진교대로점,경상남도 하동군 진교면 선창길 4,소매업; 자동차 제외,35.0260784,127.9067037
하동밥,경상남도 하동군 하동읍 시장1길 19-1,음식점 및 주점업,35.0690063,127.7490929
청춘김밥,경남 하동군 화개면 쌍계로 10,음식점 및 주점업,35.1877409,127.6248902
오송재,경남 하동군 청암면 대밭땀길 30-42,농업,35.2404275,127.7230639
베티스하우스&카페,경상남도 하동군 화개면 쌍계로 199-2,음식점 및 주점업,35.2022042,127.6336143
유정한식뷔페,경남 하동군 진교면 구고속도로 849,음식점 및 주점업,35.0212062,127.9049679
유정한식뷔페,경남 하동군 진교면 구고속도로 849,음식점 및 주점업,35.0212061739,127.9049676099
회원식당,경상남도 하동군 적량면 한옥정길 81,음식점 및 주점업,35.0781147,127.7692877
구이촌,경상남도 하동군 하동읍 시장1길 26-42,음식점 및 주점업,35.069671,127.7476343
소소다원,경남 하동군 화개면 화개로 341,식료품 제조업,35.2144108979,127.6376001263
소소다원,경남 하동군 화개면 화개로 341,식료품 제조업,35.214411,127.637601
진교매일축산,경상남도 하동군 진교면 진교중앙길 13-18,도매 및 상품 중개업,35.0277015,127.9040883
더 디어,경상남도 하동군 하동읍 경서대로 116,음식점 및 주점업,35.0657291,127.7488284
여왕미용실,경상남도 하동군 하동읍 시장1길 26-40,기타 개인 서비스업,35.06961,127.7477319
고향갈비,경상남도 하동군 하동읍 경서대로 195-1,음식점 및 주점업,35.07128,127.7536797
진교참기름집,경상남도 하동군 진교면 민다리길 56,소매업; 자동차 제외,35.0267914,127.9037877
부부원예사 ,경상남도 하동군 하동읍 경서대로 176,소매업; 자동차 제외,35.0702215,127.7519683
부부원예사,경상남도 하동군 하동읍 경서대로 176,소매업; 자동차 제외,35.0702215,127.7519683
무학건재,경상남도 하동군 옥종면 주포중앙길 19,소매업; 자동차 제외,35.1794721,127.8818514
제니공방,경상남도 하동군 하동읍 경서대로 120-1,소매업; 자동차 제외,35.0660636373,127.7491062716
솜씨방,경상남도 하동군 진교면 선창길 24,개인 및 소비용품 수리업,35.0271737,127.903816
금호스팀카케어,경상남도 하동군 하동읍 군청로 46,개인 및 소비용품 수리업,35.0649491,127.7530112
금호스팀카케어,경상남도 하동군 하동읍 군청로 46,개인 및 소비용품 수리업,35.0650838362,127.7530967484
빵굽는 마을,경상남도 하동군 진교면 민다리길 81,음식점 및 주점업,35.0289015,127.90248
"옛날막창, 소갈비살",경상남도 하동군 진교면 민다리길 44-2,음식점 및 주점업,35.0258426,127.904261
"팔도건축,설비",경상남도 하동군 하동읍 경서대로 116,소매업; 자동차 제외,35.0657291,127.7488284
화개민박,경상남도 하동군 화개면 화개로 399,숙박업,35.2193613288,127.6379855175
삼덕슈퍼,경상남도 하동군 하동읍 경서대로 235-1,소매업; 자동차 제외,35.0715912,127.7581008
강효선 목공방,경상남도 하동군 악양면 매계1길 39-8,기타 개인 서비스업,35.1839336,127.7085726
포란정,경상남도 하동군 청암면 청학동길 109,음식점 및 주점업,35.2471561,127.7065798
신광위생,경상남도 하동군 하동읍 중앙로 49,"하수, 폐수 및 분뇨 처리업",35.07071,127.7470336
장미SHOP,경상남도 하동군 진교면 진교중앙길 13-18,소매업; 자동차 제외,35.0277015,127.9040883
관광농원 금오산랜드,경남 하동군 진교면 구고속도로 374-30,음식점 및 주점업,35.0160365,127.8613047
숲속펜션,경상남도 하동군 횡천면 청학로 200-2,숙박업,35.1253047,127.8116285
옥수가네집옥수쉼터,경상남도 하동군 금남면 대치길 18-7,음식점 및 주점업,34.9739363,127.8873328
정우네 맛있는 이야기,경상남도 하동군 진교면 진교중앙길 13-18,도매 및 상품 중개업,35.0277015,127.9040883
하동군청소년수련원,경상남도 하동군 금남면 경충로 493-9,교육 서비스업,34.9826092,127.8947143
섬진강 강굴식당,경상남도 하동군 고전면 재첩길 204-5 섬진강강굴식당,음식점 및 주점업,35.0021072,127.789535
형제조명,경상남도 하동군 하동읍 경서대로 130 형제조명,소매업; 자동차 제외,35.0669152,127.7491883
길목,경상남도 하동군 화개면 화개로 985-1,소매업; 자동차 제외,35.2632287,127.6392044
횡천미곡,경상남도 하동군 횡천면 경서대로 1138,소매업; 자동차 제외,35.1095783,127.8100051
영빈,"경상남도 하동군 화개면 쌍계로 15, 4동 5호(화개장터)",소매업; 자동차 제외,35.1880103,127.6240814
평사리상회2호점,경상남도 하동군 악양면 평사리길 54,도매 및 상품 중개업,35.1542144,127.688613
특신품콩유과,경상남도 하동군 악양면 부계2길 90,소매업; 자동차 제외,35.168694,127.7225796
섬진강길,경상남도 하동군 하동읍 섬진강대로 2704,음식점 및 주점업,35.1005520781,127.7052221484
전주이모네,경상남도 하동군 화개면 쌍계로 24,음식점 및 주점업,35.1888322,127.6247791
장모님통닭,경상남도 하동군 하동읍 향교1길 13,음식점 및 주점업,35.0682777,127.7482942
마법소녀,경상남도 하동군 하동읍 산복2길 18,소매업; 자동차 제외,35.0730166,127.7597778
참신미용실,경상남도 하동군 하동읍 시장1길 18,기타 개인 서비스업,35.0692319,127.7488122
소품창고,경상남도 하동군 악양면 평사리길 40-2,소매업; 자동차 제외,35.1532001,127.6896774
평사리상회,경상남도 하동군 악양면 평사리길 54,소매업; 자동차 제외,35.1542144,127.688613
옥종농협 북천지점(경제사업장),경상남도 하동군 북천면 가리골길 6-1,소매업; 자동차 제외,35.1143229,127.8942726
홀인원무인텔,경상남도 하동군 금남면 섬진강대로 379-12,숙박업,34.9681316,127.8507972
녹차랑,경상남도 하동군 화개면 화개로 530,부동산업,35.230493,127.6424223
사계절횟집,경상남도 하동군 진교면 들포길 15 사계절횟집,음식점 및 주점업,35.022259,127.9049718
새롬미용실,경상남도 하동군 금남면 섬진강대로 682,기타 개인 서비스업,34.986963908,127.8357043235
섬진강,경상남도 하동군 악양면 평사리길 45-1,음식점 및 주점업,35.153708,127.6889909
동심결농원교육장,경상남도 하동군 악양면 대축길 20,교육 서비스업,35.1430944,127.703901
부자수산,경상남도 하동군 진교면 민다리길 58,소매업; 자동차 제외,35.0270216,127.9036762
농어촌민박 별한말,경상남도 하동군 악양면 성두길 51-4,숙박업,35.155166,127.7148704
법무사권중관사무소,경상남도 하동군 하동읍 시장1길 21-1,전문 서비스업,35.0687426,127.7491396
멜론당구클럽,"경상남도 하동군 진교면 민다리길 83-1, 3층",스포츠 및 오락관련 서비스업,35.0291292,127.9022716
지리산하동산초사회적협동조합,경상남도 하동군 횡천면 온동길 99-32,도매 및 상품 중개업,35.1214314,127.8405724
정심,경상남도 하동군 화개면 쌍계로 15,소매업; 자동차 제외,35.1880103,127.6240814
연화산장,경상남도 하동군 횡천면 안양로 285,음식점 및 주점업,35.1685834,127.8119316
양보가스,경상남도 하동군 양보면 진양로 762,소매업; 자동차 제외,35.0495205,127.8452863
금남농협금성경제계,경상남도 하동군 금성면 신도길 127,금융 및 보험관련 서비스업,34.9640993,127.7905039
고담쪽물전수관,경상남도 하동군 악양면 상신대길 61-30,소매업; 자동차 제외,35.1518126,127.7127491
사계절료리집,경상남도 하동군 하동읍 중앙1길 10-1,음식점 및 주점업,35.0699602,127.7474291
남영슈퍼,경남 하동군 하동읍 소재1길 14,소매업; 자동차 제외,35.0723672,127.7571639
반달곰상회,경상남도 하동군 하동읍 경서대로 111,소매업; 자동차 제외,35.065473,127.7482648
통l,경상남도 하동군 하동읍 중앙로 59-1,스포츠 및 오락관련 서비스업,35.0710961,127.7460053
（주）하동야생차테크,경상남도 하동군 악양면 회남재로 30,도매 및 상품 중개업,35.1765827,127.7148574
바다아귀,경남 하동군 금남면 섬진강대로 962-1,음식점 및 주점업,34.9966886,127.8105188
벚꽃펜션,경상남도 하동군 화개면 삼신길 14-16,숙박업,35.2114893463,127.6378857077
벚꽃펜션,경상남도 하동군 화개면 삼신길 14-16 벚꽃펜션,숙박업,35.2115065,127.637823
킹오브떡볶이 경남하동점,경상남도 하동군 하동읍 남당길 50,음식점 및 주점업,35.0656297075,127.7482043472
우정식당,경상남도 하동군 하동읍 중앙2길 6-2,음식점 및 주점업,35.0705225,127.7472001
장수국밥,경상남도 하동군 진교면 민다리길 62-6,음식점 및 주점업,35.0273787,127.9037903
하동하이폰,"경상남도 하동군 하동읍 시장1길 6, 1층",소매업; 자동차 제외,35.0703345,127.7485939
세븐일레븐 하동진교점,경상남도 하동군 진교면 민다리길 15,소매업; 자동차 제외,35.0232916,127.90318
서울우유 하동고객센터,경상남도 하동군 하동읍 연화길 8-1,소매업; 자동차 제외,35.0718543,127.7530957
석천슈퍼,경상남도 하동군 화개면 쌍계로 571-1,소매업; 자동차 제외,35.2299508,127.6432827
운해산장,경상남도 하동군 화개면 벽소령길 2,소매업; 자동차 제외,35.2899995,127.6452619
해태그릇,경상남도 하동군 진교면 민다리안길 93,소매업; 자동차 제외,35.0276996,127.9024432
호식이두마리치킨 양보점,경상남도 하동군 양보면 진양로 742,음식점 및 주점업,35.0477227,127.8451507
백송건장,경상남도 하동군 진교면 들포길 219,소매업; 자동차 제외,35.0067754,127.9106745
비에이치씨(BHC)하동진교점,경상남도 하동군 진교면 민다리안길 128,음식점 및 주점업,35.0248622,127.9038558
화개루,경상남도 하동군 화개면 화개로 18-12,음식점 및 주점업,35.1903438713,127.6241477609
나비벨,경상남도 하동군 진교면 민다리길 86 나비벨,음식점 및 주점업,35.0294231,127.9026066
경보푸드마켓,경상남도 하동군 악양면 평사리길 34,소매업; 자동차 제외,35.1527486,127.6896249
오.짬.땡 오늘은 짬뽕 땡기는 날,경남 하동군 적량면 경서대로 356,음식점 및 주점업,35.0698992,127.7696267
동아청과,경상남도 하동군 하동읍 시장2길 1,소매업; 자동차 제외,35.0698043,127.7489367
여왕미용실,경남 하동군 하동읍 시장1길 26-40,기타 개인 서비스업,35.06961,127.7477319
여왕미용실,경남 하동군 하동읍 시장1길 26-40,기타 개인 서비스업,35.0696312251,127.7477423706
하나로마트 베이커리,경상남도 하동군 하동읍 경서대로 171,음식점 및 주점업,35.0702322,127.7513341
불앤구이돈 하동점,경상남도 하동군 하동읍 경서대로 223,음식점 및 주점업,35.0718322,127.756724
왕벌식당,경상남도 하동군 금남면 섬진강대로 984,음식점 및 주점업,34.9976272672,127.808281793
정문인쇄사,경남 하동군 하동읍 하마길 6,출판업,35.0719624,127.7555764
카페루나,경상남도 하동군 화개면 백혜길 7,음식점 및 주점업,35.2028935,127.6343378
명동활어센타,경상남도 하동군 금남면 제먼당길 87-5,소매업; 자동차 제외,34.9502425,127.8601726
솔바람소리,경상남도 하동군 화개면 화개로 888,음식점 및 주점업,35.2594455,127.6386535
회성수산,경상남도 하동군 금남면 노량해안길 145,도매 및 상품 중개업,34.9469191,127.8716597
주식회사 서라벌,경상남도 하동군 진교면 민다리길 51-2 서라벌,전문직별 공사업,35.0265890637,127.9036529913
주식회사 서라벌,경상남도 하동군 진교면 민다리길 51-2 서라벌,전문직별 공사업,35.0265767,127.9036387
하동제과,경상남도 하동군 하동읍 시장1길 24,음식점 및 주점업,35.0685264,127.7489072
수연제다민박,경상남도 하동군 화개면 정금대비길 65,숙박업,35.2093142,127.6464795
티스크림,"경상남도 하동군 화개면 쌍계로 15, 주11동 3호(화개장터)",소매업; 자동차 제외,35.1880103,127.6240814
새정속옷할인점,경상남도 하동군 진교면 민다리길 62,소매업; 자동차 제외,35.0272836,127.9035452
하동집참숯불구이,경상남도 하동군 하동읍 중앙2길 10-7,음식점 및 주점업,35.069912,127.7468218
빵 굽는 언덕,경상남도 하동군 옥종면 옥종중앙길 54 빵굽는 언덕,음식점 및 주점업,35.1801795,127.8798333
화개약국,경남 하동군 화개면 화개로 26,소매업; 자동차 제외,35.1904459736,127.6239940588
평사리주유소,경상남도 하동군 악양면 섬진강대로 3428,소매업; 자동차 제외,35.1534233,127.6696719
해피기버,경상남도 하동군 화개면 쌍계로 15,음식점 및 주점업,35.1880103,127.6240814
해룡웰빙한정식뷔페,경상남도 하동군 금남면 경충로 440 해룡주유소,음식점 및 주점업,34.9778625,127.8945154
바른과일,경상남도 하동군 하동읍 시장2길 15-7,소매업; 자동차 제외,35.0699099,127.749824
금성여관,경상남도 하동군 하동읍 향교1길 37,숙박업,35.0698148,127.7461502
힐탑노래방,경상남도 하동군 진교면 상평길 7,스포츠 및 오락관련 서비스업,35.0303658672,127.9022690418
거제횟집,경상남도 하동군 진교면 민다리안길 109,음식점 및 주점업,35.026512,127.9034333
옛날!가마솥돼지국밥,경상남도 하동군 진교면 들포길 15,음식점 및 주점업,35.022259,127.9049718
월봉산가든,경상남도 하동군 옥종면 옥종중앙길 119,음식점 및 주점업,35.18557,127.8773117
홍인,경상남도 하동군 화개면 쌍계로 429-12,숙박업,35.219585,127.6408125
NH-OIL 화개악양농협주유소,경상남도 하동군 화개면 섬진강대로 3748-5,소매업; 자동차 제외,35.1697371,127.6437272
푸른농원,경상남도 하동군 하동읍 화심길 369,소매업; 자동차 제외,35.0905524,127.7151298
다판다철물점,경상남도 하동군 옥종면 옥단로 1022,소매업; 자동차 제외,35.1864215,127.8815767
자연숯불갈비,경상남도 하동군 악양면 악양동로 87,음식점 및 주점업,35.139522,127.6995197
다판다건축자재백화점,경상남도 하동군 옥종면 옥단로 1022,도매 및 상품 중개업,35.1864215,127.8815767
금오축산,경상남도 하동군 진교면 민다리길 70-1,소매업; 자동차 제외,35.0280554,127.9031614
보안당약국,경상남도 하동군 횡천면 문화1길 1,소매업; 자동차 제외,35.1090422,127.8111084
그기헤어,경상남도 하동군 진교면 민다리길 46,기타 개인 서비스업,35.0260059075,127.9041815042
삼명서점,경상남도 하동군 진교면 민다리길 76,소매업; 자동차 제외,35.0284911,127.9029656
서울한결의원,경상남도 하동군 횡천면 문화1길 1,보건업,35.1090422,127.8111084
진교외과의원,경상남도 하동군 진교면 진교중앙길 11,보건업,35.028916,127.9036154
센스쟁이,경상남도 하동군 진교면 진교중앙길 14-8,소매업; 자동차 제외,35.0295276,127.9031696
쌍계반점,경상남도 하동군 화개면 석문길 5,음식점 및 주점업,35.2307702,127.6435405
형제전파사,경상남도 하동군 하동읍 시장1길 23,소매업; 자동차 제외,35.068636556,127.7491316444
산마루,경상남도 하동군 진교면 사기아름길 48,음식점 및 주점업,35.034109,127.8876537
경남철물,경상남도 하동군 화개면 화개로 22,소매업; 자동차 제외,35.1901728,127.6237992
하동자동차운전학원,경상남도 하동군 하동읍 화심길 116,교육 서비스업,35.0871914712,127.733519884
하동자동차운전학원,경상남도 하동군 하동읍 화심길 116,교육 서비스업,35.087457,127.7336263
대근슈퍼,경상남도 하동군 진교면 민다리길 30-2,소매업; 자동차 제외,35.0244206,127.904053
윤슬,경상남도 하동군 화개면 화개로 18-2,음식점 및 주점업,35.1897566,127.6237543
에펠탑,경상남도 하동군 진교면 민다리길 45,음식점 및 주점업,35.025832,127.9038506
황금분식 &포차,경상남도 하동군 금성면 신도길 74,음식점 및 주점업,34.9659434,127.7921379
영신상회,경상남도 하동군 옥종면 옥종중앙길 57,소매업; 자동차 제외,35.1805343,127.8793752
장모님양념통닭,경상남도 하동군 진교면 민다리안길 123,음식점 및 주점업,35.0253867,127.9039007
원더풀꽈배기,경상남도 하동군 진교면 민다리길 76,음식점 및 주점업,35.0284911,127.9029656
전도365낚시,경상남도 하동군 금남면 섬진강대로 976,소매업; 자동차 제외,34.9973203,127.8091217
정반장,경상남도 하동군 옥종면 옥수로 339-1,음식점 및 주점업,35.1741441,127.9175366
옥산철물,경상남도 하동군 옥종면 옥종중앙길 57,소매업; 자동차 제외,35.1805343,127.8793752
해뜰목장,경상남도 하동군 옥종면 양구1길 31-104 해뜰목장,교육 서비스업,35.1747405,127.8712375
해뜰목장,경상남도 하동군 옥종면 양구1길 31-104,교육 서비스업,35.1747728149,127.8772141497
라라북천,경상남도 하동군 북천면 세이리길 4,음식점 및 주점업,35.1125016,127.8909257
광평레시피,경상남도 하동군 하동읍 굴다리1길 4,음식점 및 주점업,35.0651638,127.7486066
엘지자전거,경상남도 하동군 진교면 민다리길 74-1,소매업; 자동차 제외,35.0284701,127.9031425
횡천철물,경상남도 하동군 횡천면 문화2길 15,소매업; 자동차 제외,35.1087208,127.8100053
정서골추어탕,경상남도 하동군 악양면 악양서로 362,음식점 및 주점업,35.162528,127.70962
하남카월드,경상남도 하동군 진교면 들포길 45,개인 및 소비용품 수리업,35.0206283473,127.9038536095
하남카월드,경상남도 하동군 진교면 들포길 45,개인 및 소비용품 수리업,35.0206289732,127.9038524414
화개치과의원,경상남도 하동군 화개면 화개로 2-15,보건업,35.1895291,127.6233854
카페오프닝,경상남도 하동군 금남면 섬진강대로 962,음식점 및 주점업,34.9967922,127.8104237
해광삿시유리,경상남도 하동군 악양면 악양동로 142,소매업; 자동차 제외,35.1433756,127.702255
인제한의원,경상남도 하동군 옥종면 옥종중앙길 43,보건업,35.1791604,127.8795349
참사랑연합의원,경상남도 하동군 하동읍 중앙로 18,보건업,35.0705341,127.750606
악양루,경상남도 하동군 악양면 악양동로 382-1,음식점 및 주점업,35.1617757,127.7097994
금산자동차정비공업사,경상남도 하동군 진교면 경충로 1089,개인 및 소비용품 수리업,35.030588,127.9048556
최참판댁삼거리상회,경상남도 하동군 악양면 평사리길 46-1,소매업; 자동차 제외,35.1538505,127.6891196
대호갈비,경상남도 하동군 하동읍 향교1길 56,음식점 및 주점업,35.0707463,127.7448295
동원사랑 할인마트,경상남도 하동군 화개면 화개로 20,소매업; 자동차 제외,35.190052,127.6237225
LG 22시 편의점,경상남도 하동군 진교면 민다리안길 97(진교아파트),소매업; 자동차 제외,35.0272412,127.9027021
고향식육식당,경상남도 하동군 횡천면 경서대로 1152,음식점 및 주점업,35.1089251,127.8115693
전도성모의원,경상남도 하동군 금남면 섬진강대로 971,보건업,34.9966837,127.8092495
세븐일레븐 하동진교점,경상남도 하동군 진교면 민다리길 13,소매업; 자동차 제외,35.0231906,127.9031301
의령소바 하동점,경상남도 하동군 금남면 섬진강대로 980,음식점 및 주점업,34.9975086,127.8086318
하동군민여성의원,경상남도 하동군 하동읍 중앙로 115,보건업,35.0736963,127.7403062
바라봄,경상남도 하동군 화개면 화개로 519,음식점 및 주점업,35.2297542,127.6417816
전도치과의원,경상남도 하동군 금남면 섬진강대로 973-21,보건업,34.9964136,127.8095454
늘푸른가든,경상남도 하동군 악양면 악양서로 410-16,음식점 및 주점업,35.1659168,127.713803
삼부자네 하동점,경상남도 하동군 하동읍 중앙로 21,소매업; 자동차 제외,35.0701228,127.7501482
더브릿지,경상남도 하동군 하동읍 송림3길 31,음식점 및 주점업,35.0609746,127.7490727
고래식당,경상남도 하동군 하동읍 중앙3길 9,음식점 및 주점업,35.0702905,127.7464155
온데이(onday),경상남도 하동군 하동읍 송림1길 17,음식점 및 주점업,35.0636516,127.7479557
베트남골목식당2호점(하동),경상남도 하동군 고전면 재첩길 5-8,음식점 및 주점업,34.9980461,127.8054343
명성콩국수,경상남도 하동군 하동읍 중앙로 8,음식점 및 주점업,35.0707473,127.7516704
케이크하동,경상남도 하동군 하동읍 중앙로 45-1,음식점 및 주점업,35.0706859,127.7475345
상선 다원,경상남도 하동군 화개면 영당2길 97,도매 및 상품 중개업,35.183561,127.6354721
지리산청학농협 하나로마트 횡천점,경상남도 하동군 횡천면 횡천강변길 61,소매업; 자동차 제외,35.1084541,127.8113734
홍이네갱조개,경상남도 하동군 하동읍 섬진강대로 1880,음식점 및 주점업,35.0593845,127.7665418
"보신정 재첩,참게탕",경상남도 하동군 하동읍 섬진강대로 2564,음식점 및 주점업,35.0909933432,127.7147441424
"보신정 재첩,참게탕",경상남도 하동군 하동읍 섬진강대로 2564,음식점 및 주점업,35.0910077,127.7147398
밀&밥,경상남도 하동군 악양면 평사리길 28 1호,음식점 및 주점업,35.1522039,127.6897649
모꼬지펜션,경상남도 하동군 화개면 화개로 665,숙박업,35.2420136342,127.6415522317
모꼬지펜션,경상남도 하동군 화개면 화개로 665 모꼬지펜션,숙박업,35.2420191,127.6415725
GS25 하동진교IC점,경상남도 하동군 진교면 민다리안길 13,소매업; 자동차 제외,35.0338624,127.9038198
회남당,경상남도 하동군 고전면 하동읍성로 803,음식점 및 주점업,35.031575,127.8507715
더조은여행사,경상남도 하동군 화개면 쌍계로 367(정금마을마을회관),사업 지원 서비스업,35.2138946,127.6403641
더조은여행사,경상남도 하동군 화개면 쌍계로 367(정금마을마을회관),사업 지원 서비스업,35.2138941132,127.640388998
강한 농기계,경상남도 하동군 진교면 구송로 703,소매업; 자동차 제외,35.0272746,127.9118477
남양우유하동대리점,경상남도 하동군 하동읍 연화길 8-3 2층,소매업; 자동차 제외,35.0719485,127.7531826
지리산하옹고,경상남도 하동군 옥종면 세종태실로 550-7 지리산하옹고,소매업; 자동차 제외,35.155816,127.8935155
지리산하옹고,경상남도 하동군 옥종면 세종태실로 550-7,소매업; 자동차 제외,35.1558160379,127.8935151558
바다랑육지랑,"경상남도 하동군 진교면 선창길 22, 1층",음식점 및 주점업,35.0263667,127.9048292
팥앙금,경상남도 하동군 옥종면 옥종중앙길 71 팥앙금,음식점 및 주점업,35.181625,127.8793135
소쿠리테공인중개사사무소,경상남도 하동군 진교면 하평안길 28,부동산업,35.0231114,127.9055912
송림난재배농원,경상남도 하동군 진교면 민다리안길 40,도매 및 상품 중개업,35.0323993,127.9014506
고하돈까스,경상남도 하동군 고전면 하동읍성로 562,음식점 및 주점업,35.0233483,127.8321046
카페노량,경상남도 하동군 금남면 노량해안길 12,음식점 및 주점업,34.9483242,127.8601555
힐링정원,경상남도 하동군 화개면 부춘길 184,숙박업,35.1765158,127.6579148
옥종떡방앗간,경상남도 하동군 옥종면 주포중앙길 22,음식점 및 주점업,35.1797756,127.8818653
섬진강포구주유소,경상남도 하동군 적량면 경서대로 628,소매업; 자동차 제외,35.0742495,127.7890482
푸른들화원,경상남도 하동군 진교면 민다리길 130,소매업; 자동차 제외,35.0330865573,127.9006198094
정티움맛식당,경상남도 하동군 옥종면 고성산동학로 862,음식점 및 주점업,35.1741466132,127.9183467944
세븐일레븐 하동진교장원점,경상남도 하동군 진교면 민다리길 110,소매업; 자동차 제외,35.031311,127.9017137
대성횟집,경상남도 하동군 금남면 구노량길 12,음식점 및 주점업,34.9480826,127.8736641
통뼈감자탕,경상남도 하동군 금남면 섬진강대로 679,음식점 및 주점업,34.9865472,127.8359205
동창식육식당,경상남도 하동군 양보면 진양로 744,음식점 및 주점업,35.0478556,127.8450644
명화농원,경남 하동군 화개면 쌍계로 19,소매업; 자동차 제외,35.1885912,127.6244431
정원건축사사무소,경상남도 하동군 하동읍 군청로 24(하동읍내엘에이치천년나무아파트),"건축 기술, 엔지니어링 및 기타 과학기술 서비스업",35.0663829,127.7502625
일신목공인테리어,경남 하동군 하동읍 공설운동장로 20-3,기타 개인 서비스업,35.0700615,127.7630133
모즈,경상남도 하동군 횡천면 경서대로 1145,소매업; 자동차 제외,35.1095952,127.8109554
장터 수제왕만두,경상남도 하동군 하동읍 중앙로 13,음식점 및 주점업,35.0703002,127.7510412
나팔수산물직판장,경상남도 하동군 금성면 나팔윗길 43-5,소매업; 자동차 제외,34.9457661,127.7808839
오늘은분식,경남 하동군 금남면 섬진강대로 962,음식점 및 주점업,34.9967922,127.8104237
원지추어탕,경남 하동군 하동읍 시장2길 15-5,음식점 및 주점업,35.069923,127.7500006
다이소 경남하동점,경상남도 하동군 하동읍 경서대로 145,소매업; 자동차 제외,35.0683045,127.7495234
농업회사법인 요리곳간주식회사,경남 하동군 악양면 신흥길 159-4,식료품 제조업,35.1644615,127.7261677
농업회사법인 요리곳간주식회사,경상남도 하동군 악양면 신흥길 159-4,식료품 제조업,35.1644615,127.7261677
지리산들깨농부,경남 하동군 횡천면 문화1길 15-2,소매업; 자동차 제외,35.1081902,127.811014
명성가구,경남 하동군 하동읍 경서대로 158,소매업; 자동차 제외,35.0689498,127.750763
거봉가든,경상남도 하동군 하동읍 공설운동장로 20-3,음식점 및 주점업,35.0699697,127.7630723
악양주조,경남 하동군 악양면 악양서로 363,식료품 제조업,35.1626189,127.7093225
악양주조,경남 하동군 악양면 악양서로 363,식료품 제조업,35.1627366513,127.7093068178
비엠네트웍스,경상남도 하동군 진교면 민다리안길 46,전문직별 공사업,35.0319167,127.9012291
시골돼지국밥,경남 하동군 진교면 선창길 12,음식점 및 주점업,35.0262181,127.9059423
내고향왕갈비,경상남도 하동군 옥종면 옥종중앙길 67,음식점 및 주점업,35.181238,127.8794218
하동황토왕쑥뜸원,경상남도 하동군 옥종면 덕천로 9,기타 개인 서비스업,35.1828297,127.8800826
명랑핫도그하동점,경상남도 하동군 하동읍 경서대로 116,음식점 및 주점업,35.0657291,127.7488284
막사발,경상남도 하동군 화개면 화개로 41,음식점 및 주점업,35.1919633,127.624031
악양지점 주유소,경상남도 하동군 악양면 악양서로 342,소매업; 자동차 제외,35.1608246,127.7089408
강나루,경상남도 하동군 옥종면 옥단로 1833-49,숙박업,35.2493683,127.8915318
세븐일레븐 하동금오산2호점,경상남도 하동군 금남면 금오산길 796,소매업; 자동차 제외,34.9919591,127.8707887
하동 알퐁소 펜션,경상남도 하동군 화개면 가탄길 59-1,숙박업,35.2018578,127.6350884
도도헤어,경상남도 하동군 하동읍 중앙로 46,기타 개인 서비스업,35.0708915,127.7476056
화개장터상인협동조합,경상남도 하동군 화개면 쌍계로 15,도매 및 상품 중개업,35.1880103,127.6240814
멀구슬펜션,경상남도 하동군 화개면 백혜길 1,숙박업,35.2031965,127.6337447
미보라미용실,경상남도 하동군 옥종면 옥종중앙길 64,기타 개인 서비스업,35.180938,127.8797376
맘스터치 하동진교점,경남 하동군 진교면 진교시장길 17-11,음식점 및 주점업,35.0267099,127.9052333
제일떡방앗간,경상남도 하동군 하동읍 시장1길 26-29,식료품 제조업,35.0691847368,127.7478932032
타이어1번지,경상남도 하동군 적량면 대티길 66,자동차 및 부품 판매업,35.0792218,127.7804022
낙원한식뷔페,경상남도 하동군 금성면 산업로 744,음식점 및 주점업,34.9765651,127.792844
청학식당,경남 하동군 청암면 청학로 2191,음식점 및 주점업,35.2269164,127.7353226
대성식당,경남 하동군 하동읍 중앙2길 6-6,음식점 및 주점업,35.0705978,127.7469744
이마트24 R하동읍내점,경상남도 하동군 하동읍 시장1길 25,소매업; 자동차 제외,35.0685171,127.7492846
둥지식당,경남 하동군 진교면 민다리안길 107-1,음식점 및 주점업,35.0265762,127.9033529
민들레점빵,경상남도 하동군 하동읍 시장1길 20-3,음식점 및 주점업,35.0691809,127.7481647
새,경남 하동군 청암면 청학로 2570-6,음식점 및 주점업,35.2417255,127.7072038
서울바베큐,경상남도 하동군 하동읍 중앙로 51,음식점 및 주점업,35.0707947,127.7469166
사비나공방,경상남도 하동군 악양면 매계1길 46-4,소매업; 자동차 제외,35.1846168,127.7083859
사비나공방,경상남도 하동군 악양면 매계1길 46-4,소매업; 자동차 제외,35.1845945652,127.7083805555
네일아뜰리에,경상남도 하동군 진교면 진교중앙길 14-3,기타 개인 서비스업,35.0293283,127.9030384
주식회사엠에스전기정보통신,경남 하동군 하동읍 경서대로 199,종합 건설업,35.0715615,127.7543487
꿈그린터,경남 하동군 하동읍 청년회관길 8-21,"창작, 예술 및 여가관련 서비스업",35.0719633,127.7481157
주식회사 지헌,경상남도 하동군 고전면 신월길 9-3,소매업; 자동차 제외,35.039463,127.7894317
영풍식물원꽃집화원,경상남도 하동군 하동읍 시장3길 13,도매 및 상품 중개업,35.0687701,127.7500149
나루빛재첩,경상남도 하동군 하동읍 너뱅이길 13-3,식료품 제조업,35.0632276793,127.7593477798
신대슈퍼,경상남도 하동군 악양면 악양동로 211-18,소매업; 자동차 제외,35.1478642,127.7051433
할매산오징어,경상남도 하동군 하동읍 시장3길 4-1,음식점 및 주점업,35.0694604,127.7496527
진교다육,경상남도 하동군 고전면 아정길 56,소매업; 자동차 제외,35.0257161,127.8135585
행복한끼,경상남도 하동군 하동읍 시장1길 19-1,음식점 및 주점업,35.0690063,127.7490929
본하동녹차수제어묵,경상남도 하동군 하동읍 시장2길 15-9,음식점 및 주점업,35.0699036,127.7496094
진교정치과,경남 하동군 진교면 진교중앙길 11,보건업,35.028916,127.9036154
연당,경상남도 하동군 화개면 화개로 461,음식점 및 주점업,35.2248628,127.6401711
하동향토음식관,경상남도 하동군 하동읍 섬진강대로 2107-5,음식점 및 주점업,35.0619659,127.7447113
부라보막창,경남 하동군 하동읍 중앙2길 3,음식점 및 주점업,35.0705449,127.7474887
봄날의 농장 그리고 하동,경남 하동군 적량면 적량로 194,소매업; 자동차 제외,35.0908276,127.7736148
마벨헤어,경남 하동군 하동읍 경서대로 160,기타 개인 서비스업,35.0691448108,127.7509122224
하동특수렉카,경상남도 하동군 하동읍 경서대로 71(대경송림타운),창고 및 운송관련 서비스업,35.0648835,127.7444976
대도시빌리지,경상남도 하동군 화개면 맥전길 55-1,숙박업,35.2418465763,127.6437328375
대도시빌리지,경상남도 하동군 화개면 맥전길 55-1,숙박업,35.2418413183,127.6437334178
명산차농원,경상남도 하동군 화개면 목압길 8,음료 제조업,35.2361333,127.6416994
옥화주막,경상남도 하동군 화개면 쌍계로 21,음식점 및 주점업,35.1886236,127.6242244
붓당골제다,경상남도 하동군 화개면 화개로 733,도매 및 상품 중개업,35.2475949,127.6411925
그놈포차 경남하동점,경남 하동군 하동읍 중앙1길 5-2,음식점 및 주점업,35.0702475,127.7477321
도둑골신규,경남 하동군 옥종면 호계천로 202,숙박업,35.1950295,127.8582356
봉구스밥버거,경남 하동군 하동읍 송림1길 1,음식점 및 주점업,35.064996,127.7484553
우숲,경상남도 하동군 하동읍 경서대로 174,소매업; 자동차 제외,35.0700994,127.7518492
정온다,경남 하동군 악양면 하신대길 8,소매업; 자동차 제외,35.1475227059,127.7065664313
정온다,경남 하동군 악양면 하신대길 8,소매업; 자동차 제외,35.147523,127.7065613
지리산 조부잣집,경남 하동군 악양면 정동상신길 73-13,숙박업,35.1709691377,127.7071715858
지리산 조부잣집,경남 하동군 악양면 정동상신길 73-13,숙박업,35.1713679,127.7070125
정원에스테틱,경상남도 하동군 하동읍 경서대로 138,기타 개인 서비스업,35.0675388,127.7494595
(주)섬진강자연재첩수산,경남 하동군 하동읍 군청로 185-23,금속 가공제품 제조업; 기계 및 가구 제외,35.0619305,127.7672333
재호수산,경상남도 하동군 금남면 제먼당길 110,소매업; 자동차 제외,34.9484846,127.8607629
장씨네 식당,경남 하동군 북천면 금천길 59-6,음식점 및 주점업,35.1195674,127.8915464
감동화개,경남 하동군 화개면 화개로 535,음식점 및 주점업,35.2311022,127.6424487
황금재첩,경남 하동군 화개면 섬진강대로 3915,음식점 및 주점업,35.1793855,127.6313892
유니과자점,경상남도 하동군 하동읍 송림1길 31,음식점 및 주점업,35.0626918,127.7477615
별천지컴퍼니,경남 하동군 하동읍 중앙1길 4,사업 지원 서비스업,35.0704825024,127.7475851305
차와향,경상남도 하동군 화개면 부춘길 183,음식점 및 주점업,35.1767781,127.6574676
씨유 하동화력발전소점,경상남도 하동군 금성면 경제산업로 509,소매업; 자동차 제외,34.9516292,127.8205132
우숲,경남 하동군 하동읍 경서대로 247,소매업; 자동차 제외,35.071518,127.7592181
하동솔밭오리,경상남도 하동군 하동읍 섬진강대로 1686,음식점 및 주점업,35.0429759,127.7719638
현대자동차블루핸즈 하동점,경상남도 하동군 하동읍 군청로 149,개인 및 소비용품 수리업,35.0612861069,127.7630789726
백년국밥,경상남도 하동군 하동읍 시장3길 12,음식점 및 주점업,35.0687967,127.7496701
황금코다리,경상남도 하동군 하동읍 경서대로 147-1,음식점 및 주점업,35.0686777,127.7495631
알뜰살뜰마트,경상남도 하동군 하동읍 시장1길 4,소매업; 자동차 제외,35.0704147,127.748493
꼬마김밥,경상남도 하동군 하동읍 중앙로 39,음식점 및 주점업,35.0705644,127.7482875
하양,경상남도 하동군 하동읍 부두길 12,음식점 및 주점업,35.0586194,127.7647049
토브헤어,경상남도 하동군 진교면 민다리길 74-1,기타 개인 서비스업,35.0284701,127.9031425
현대종합자동차정비,경상남도 하동군 하동읍 섬진강대로 2334,개인 및 소비용품 수리업,35.0810477,127.7364669
미가헤어,경상남도 하동군 하동읍 중앙로 13,기타 개인 서비스업,35.0703002,127.7510412
조영남갤러리 카페,경상남도 하동군 화개면 원탑2길 4,음식점 및 주점업,35.1878566,127.6252846
해물고사리짬뽕,경상남도 하동군 북천면 경서대로 2475,음식점 및 주점업,35.1158959,127.8949956
섬진강오리알,경상남도 하동군 하동읍 중앙로 109,음식점 및 주점업,35.0733839,127.7413587
양보제과,경상남도 하동군 양보면 진양로 1085-19,음식점 및 주점업,35.0689335,127.8290495
전통이레식품,경상남도 하동군 북천면 경서대로 2474-12,식료품 제조업,35.1155105,127.8969785
꿈제작소,경상남도 하동군 하동읍 청년회관길 13,소매업; 자동차 제외,35.0719311,127.7473923
미니스톱하동점,경상남도 하동군 하동읍 중앙로 37,소매업; 자동차 제외,35.0705821,127.7484758
GS25진교터미널점,경상남도 하동군 진교면 진교중앙길 14-8,소매업; 자동차 제외,35.0295276,127.9031696
GS25하동점,경상남도 하동군 하동읍 경서대로 110,소매업; 자동차 제외,35.0651065,127.7484728
GS25하동연화점,경상남도 하동군 하동읍 연화길 14,소매업; 자동차 제외,35.0721218,127.7528868
씨유하동금성점,경상남도 하동군 금성면 금성로 290-3,소매업; 자동차 제외,34.9619982,127.7826918
부두횟집,경상남도 하동군 하동읍 부두길19-20,음식점 및 주점업,35.0580875,127.7663494
덕자네떡방앗간,경상남도 하동군 하동읍 시장1길 19,식료품 제조업,35.0690836,127.749084
풍년상회,경상남도 하동군 하동읍 시장1길 10,소매업; 자동차 제외,35.0699426,127.7486615
도원한의원,경상남도 하동군 하동읍 중앙로 33,보건업,35.0705141,127.7488276
GS칼텍스 돌다리주유소,경상남도 하동군 적량면 공설운동장로 240,소매업; 자동차 제외,35.0604601,127.7811108
섬진주유소,경상남도 하동군 하동읍 경서대로 182,소매업; 자동차 제외,35.0706744,127.75257
성화관,경상남도 하동군 적량면 공설운동장로 254,음식점 및 주점업,35.0597182,127.7823351
뚜레쥬르,경상남도 하동군 하동읍 중앙로 20,음식점 및 주점업,35.0704209,127.7503597
하동군청 구내식당,경상남도 하동군 하동읍 군청로23,음식점 및 주점업,35.067333,127.751275
해동컴넷,경상남도 하동군 하동읍 경서대로 90,소매업; 자동차 제외,35.0643448,127.7465633
금성숯불갈비,경상남도 하동군 금성면 신도길 124,음식점 및 주점업,34.9640353,127.7911928
이노티안경,경상남도 하동군 하동읍 중앙로 29-6,소매업; 자동차 제외,35.0703102,127.7490204
옥종점,경상남도 하동군 옥종면 옥종중앙길 50,음식점 및 주점업,35.1797251,127.879898
윤혜어,경상남도 하동군 하동읍 경서대로 109,기타 개인 서비스업,35.0653088,127.7480832
콩밭,경상남도 하동군 진교면 안심길 121,식료품 제조업,35.0196817557,127.8637013553
산해회식당,경상남도 하동군 금성면 금성중앙길 25,음식점 및 주점업,34.9663977,127.7952747
대성종합상사,경상남도 하동군 금성면 신도길 101,소매업; 자동차 제외,34.9652155,127.7911801
잘살아보세식당,경상남도 하동군 금성면 금성중앙길 52,음식점 및 주점업,34.9663107,127.7983198
금성관,경상남도 하동군 금성면 금성중앙길 22,음식점 및 주점업,34.9660856,127.7950858
참숯장어마을,경상남도 하동군 금성면 명덕길 76,음식점 및 주점업,34.9568968,127.813837
흥진대우산업,경상남도 하동군 금성면 광포안길 1,소매업; 자동차 제외,34.9680059,127.8105727
하남식당,경상남도 하동군 북천면 경서대로 2443,음식점 및 주점업,35.1138917,127.8923697
우리한우식육식당,경상남도 하동군 옥종면 옥종시장길2,음식점 및 주점업,35.1816819,127.879631
카페그리로,경상남도 하동군 옥종면 옥종중앙길52-3,음식점 및 주점업,35.1800125,127.8798128
대박마트,경상남도 하동군 금남면 섬진강대로 679,소매업; 자동차 제외,34.9865472,127.8359205
금남주유소,경상남도 하동군 금남면 섬진강대로 669,소매업; 자동차 제외,34.9863849,127.8367332
금오식당,경상남도 하동군 금남면 노량해안길 9-1,음식점 및 주점업,34.9485289,127.8599866
명동활어회센타,경상남도 하동군 금남면 제먼당길 87-5,음식점 및 주점업,34.9502425,127.8601726
동양인테리어,경상남도 하동군 금남면 대왕골길 1,소매업; 자동차 제외,34.9869656,127.8375516
섬진강참숯민물장어,경상남도 하동군 금남면 사궁길 7,음식점 및 주점업,34.9970748,127.8105068
장수횟집,경상남도 하동군 금남면 노량해안길 16-2,음식점 및 주점업,34.9482887,127.8605931
한주샷시,경상남도 하동군 금남면 섬진강대로 683,전문직별 공사업,34.9864306,127.8352914
신노량낚시,경상남도 하동군 금남면 노량해안길 10,소매업; 자동차 제외,34.948323,127.8599827
은송횟집식당,경상남도 하동군 금남면 노량해안길 16,음식점 및 주점업,34.9483137,127.8604887
하나로마트 하동농협 고전점,경상남도 하동군 고전면 하동읍성로 548,소매업; 자동차 제외,35.0224804,127.8308862
하나로마트 하동농협 전도점,경상남도 하동군 고전면 재첩길 5-4,소매업; 자동차 제외,34.9978198,127.8049693
하나로마트 금남농협 고남점,경상남도 하동군 금남면 섬진강대로 961,금융 및 보험관련 서비스업,34.9962825,127.8099221
하나로마트 금남농협 본점,경상남도 하동군 금남면 제먼당길 91,금융업,34.9495972,127.8599466
하나로마트 금오농협 진교점,경상남도 하동군 진교면 경충로 1059,소매업; 자동차 제외,35.0281512,127.9048222
동창식육식당,경상남도 하동군 양보면 진양로744,음식점 및 주점업,35.0478556,127.8450644
들꽃이야기,경상남도 하동군 청암면 청학로 1809-47,음식점 및 주점업,35.2074182,127.7644866
하나로마트 옥종농협 본점,경상남도 하동군 옥종면 주포중앙길 36,소매업; 자동차 제외,35.1804726,127.8808656
하나로마트 옥종농협 북천점,경상남도 하동군 북천면 경서대로 2463,소매업; 자동차 제외,35.1152895,127.8939333
하나로마트 지리산청학농협 삼개리지점,경상남도 하동군 옥종면 돌고지로 1113,소매업; 자동차 제외,35.1921646,127.837999
하나로마트 하동축산농협 솔잎한우프라자,경상남도 하동군 고전면 하동읍성로 9,소매업; 자동차 제외,34.9993353,127.8041302
해동옥,경상남도 하동군 하동읍 중앙로 29-4,음식점 및 주점업,35.0703279,127.749163
명종식당,경상남도 하동군 하동읍 경서대로 195,음식점 및 주점업,35.0712422,127.7535947
성창당한약방,경상남도 하동군 하동읍 중앙로 19-1,소매업; 자동차 제외,35.0701353,127.7502759
소이,경상남도 하동군 하동읍 중앙로 31,소매업; 자동차 제외,35.0704482,127.7491631
알프스동화,경상남도 하동군 화개면 신촌도심길 93,숙박업,35.216041,127.6505519
계곡산장,경상남도 하동군 청암면 청학로 2548,음식점 및 주점업,35.2421195,127.7085706
성남특산품판매장,경상남도 하동군 청암면 청학로 2517-13,소매업; 자동차 제외,35.2411015,127.7102988
청학동미가,경상남도 하동군 청암면 청학동길 43-1,음식점 및 주점업,35.2439564,127.7100244
현영식육식당,경상남도 하동군 금남면 주교로 8,음식점 및 주점업,34.9871787,127.8367685
귀뚜라미보일러하동점,경상남도 하동군 하동읍 경서대로 150,소매업; 자동차 제외,35.0683054639,127.7502151737
n. g종합문구,경상남도 하동군 하동읍 시장1길 24,소매업; 자동차 제외,35.0685264,127.7489072
커피베이 하동점,경상남도 하동군 하동읍 경서대로 144,음식점 및 주점업,35.0678931,127.7498165
편안한건재,경상남도 하동군 고전면 재첩길5-6,소매업; 자동차 제외,34.9979319,127.8051518
원조재첩국나루터식당,경상남도 하동군 고전면 재첩길286,음식점 및 주점업,35.0071785,127.7869986
나루터재첩벚굴,경상남도 하동군 고전면 재첩길284,음식점 및 주점업,35.0069891,127.7870243
배드리식당,경상남도 하동군 고전면 하동읍성로556,음식점 및 주점업,35.0231138,127.8313641
신평떡방앗간,경상남도 하동군 금성면 금성중앙길 89-2,소매업; 자동차 제외,34.9669867,127.8022774
우림농장,경상남도 하동군 청암면 청학로 677,음식점 및 주점업,35.1562336,127.7986329
아모레카운셀러,"경상남도 하동군 하동읍 중앙로 12,",소매업; 자동차 제외,35.0706574,127.751141
김밥나라,"경상남도 하동군 하동읍 중앙로 30,",음식점 및 주점업,35.0706203,127.7493779
매일실비식당,경상남도 하동군 화개면 화개로 8-1,음식점 및 주점업,35.1892551,127.6228765
농부나라(툴마트),경상남도 하동군 악양면 악양동로 378,소매업; 자동차 제외,35.1613281,127.7101823
삼미식당,경상남도 하동군 악양면 악양동로 384-1,음식점 및 주점업,35.161932,127.7097338
솔봉식당,경상남도 하동군 악양면 악양서로 364,음식점 및 주점업,35.162691,127.709616
용궁식당,경상남도 하동군 하동읍 굴다리2길 49,음식점 및 주점업,35.0647757,127.7528509
헌2찜닭,경상남도 하동군 하동읍 경서대로 97,음식점 및 주점업,35.0650838,127.7468771
돌팀이횟집,경상남도 하동군 하동읍 섬진강대로 2576,음식점 및 주점업,35.0914472,127.7136922
온하동,"경상남도 하동군 하동읍 중앙로 20,",음식점 및 주점업,35.0704209,127.7503597
타이어강호㈜ 하동점,경상남도 하동군 하동읍 군청로 159,자동차 및 부품 판매업,35.0606369,127.7642812
청뫼산장,경상남도 하동군 청암면 청학로 2524,음식점 및 주점업,35.2420823,127.7107944
하동율림영농조합법인,경남 하동군 하동읍 섬진강대로 2413-15,소매업; 자동차 제외,35.0831494653,127.728137054
윤보식당,경상남도 하동군 하동읍 시장3길 6,음식점 및 주점업,35.0693667,127.749638
더리컴펜션,경상남도 하동군 화개면 신촌도심길 60,숙박업,35.2175789,127.6477164
채울,경상남도 하동군 하동읍 중앙로 54,음식점 및 주점업,35.0710953,127.7468524
화개시외버스공용주차장,경상남도 하동군 화개면 화개로 8-1,창고 및 운송관련 서비스업,35.1892551,127.6228765
제일의료기기,경상남도 하동군 하동읍 중앙로 32,도매 및 상품 중개업,35.0706425,127.7492791
우리농약사,경상남도 하동군 진교면 민다리길 65,소매업; 자동차 제외,35.0275946,127.903101
용선지조경 주식회사,경상남도 하동군 진교면 민다리길 92,"건축 기술, 엔지니어링 및 기타 과학기술 서비스업",35.0297471269,127.9023983379
귀족호프,경상남도 하동군 진교면 진교중앙길 11,음식점 및 주점업,35.028916,127.9036154
써니,경상남도 하동군 진교면 민다리길 68,음식점 및 주점업,35.0277846,127.9032991
민다리광고,경상남도 하동군 진교면 진교중앙길 13-6,전문 서비스업,35.0286221,127.903209
동광축산식당,경상남도 하동군 진교면 진교시장길 33,음식점 및 주점업,35.0267149,127.9046741
능이버섯,경상남도 하동군 진교면 선창길 22,음식점 및 주점업,35.0263667,127.9048292
능이오리백숙,경상남도 하동군 진교면 선창길 22,음식점 및 주점업,35.0263667,127.9048292
빛나우리,경상남도 하동군 하동읍 청년회관길 13,소매업; 자동차 제외,35.0719311,127.7473923
신방촌재첩벗굴식당,경상남도 하동군 고전면 재첩길 282,음식점 및 주점업,35.006818,127.7869755
덕유산장가든,경상남도 하동군 고전면 공설운동장로 421,음식점 및 주점업,35.0461459,127.7880549
요거프레소,경상남도 하동군 고전면 하동읍성로 9,음식점 및 주점업,34.9993353,127.8041302
왕대감족발,경상남도 하동군 하동읍 시장2길 15-11,음식점 및 주점업,35.0698931,127.7492994
아리곳간,경상남도 하동군 화개면 쌍계로 24,식료품 제조업,35.1888322,127.6247791
진성식당,경상남도 하동군 화개면 쌍계로 34,음식점 및 주점업,35.1896605,127.62527
조영남갤러리카페,경상남도 하동군 화개면 원탑2길 4,음식점 및 주점업,35.1878566,127.6252846
다우차,경상남도 하동군 화개면 쌍계로 24,음식점 및 주점업,35.1888322,127.6247791
하동전통식품,경상남도 하동군 하동읍 섬진강대로 2396,식료품 제조업,35.0826248,127.7300134
하동수제강정,경상남도 하동군 화개면 쌍계로 14,식료품 제조업,35.1881433,127.6248791
맷돌집,경상남도 하동군 화개면 쌍계로 15,음식점 및 주점업,35.1880103,127.6240814
새터골농산,경상남도 하동군 화개면 쌍계로 15,소매업; 자동차 제외,35.1880103,127.6240814
참새농장,경상남도 하동군 화개면 쌍계로 15,소매업; 자동차 제외,35.1880103,127.6240814
고원상회,경상남도 하동군 하동읍 시장1길 20-5,소매업; 자동차 제외,35.0695173,127.7478053
하사랑 심리상담연구소,경상남도 하동군 하동읍 향교1길 49,사회복지 서비스업,35.0702822,127.7452567
대호참숯불구이,경상남도 하동군 하동읍 중앙2길 10-7,음식점 및 주점업,35.069912,127.7468218
한솥도시락,경상남도 하동군 하동읍 경서대로 153,음식점 및 주점업,35.0689791,127.750146
청춘짜장,경상남도 하동군 하동읍 시장1길 28-1,음식점 및 주점업,35.0682186,127.7490043
토지,경상남도 하동군 화개면 쌍계로 15,섬유제품 제조업; 의복 제외,35.1880103,127.6240814
화개장터 귀농인의집,경상남도 하동군 화개면 쌍계로 15,음식점 및 주점업,35.1880103,127.6240814
조양숯불갈비,경상남도 하동군 화개면 쌍계로 35,음식점 및 주점업,35.1899114,127.6251104
웰빙먹거리,경상남도 하동군 화개면 쌍계로 15,음식점 및 주점업,35.1880103,127.6240814
여명가든,경상남도 하동군 악양면 성두길 11-3,음식점 및 주점업,35.1582616,127.7126461
여명제다,경상남도 하동군 악양면 악양서로 92,식료품 제조업,35.1488563,127.6876554
터미널분식,경상남도 하동군 화개면 화개로 18-3,음식점 및 주점업,35.1898808,127.623663
향원슈퍼,경상남도 하동군 화개면 화개로 535,소매업; 자동차 제외,35.2311022,127.6424487
B.Y.C,경상남도 하동군 하동읍 시장1길 13,소매업; 자동차 제외,35.0694395,127.7490639
서울칼국수,경상남도 하동군 하동읍 중앙1길 8-1,음식점 및 주점업,35.0701025,127.7474141
왕대밭참숯불닭갈비,경상남도 하동군 하동읍 공설운동장로 13,음식점 및 주점업,35.0708118,127.7627902
정덕집,경상남도 하동군 하동읍 시장1길 14-2,음식점 및 주점업,35.0696337,127.7484857
피자듀엣,경상남도 하동군 하동읍 중앙로 49,음식점 및 주점업,35.07071,127.7470336
홍삼나라 하동점,"경상남도 하동군 하동읍 시장1길 27,",소매업; 자동차 제외,35.0681526,127.7492467
법무사심규환사무소,경상남도 하동군 하동읍 경서대로 154,전문 서비스업,35.0686448,127.7504896
4CUS,"경상남도 하동군 하동읍 중앙로 24,",소매업; 자동차 제외,35.0704308,127.7501059
청송횟집,"경상남도 하동군 하동읍 경서대로211,",음식점 및 주점업,35.0716984,127.7552584
하동미디어,"경상남도 하동군 하동읍 시장3길 12,",출판업,35.0687967,127.7496701
삼복밤상회,경상남도 하동군 하동읍 경서대로 113(삼복밤상회),소매업; 자동차 제외,35.0656433,127.7483832
다힌미용실,경상남도 하동군 진교면 민다리안길 110,기타 개인 서비스업,35.0264019,127.9030689
멋진남자 헤어,경상남도 하동군 진교면 민다리길 51-5,기타 개인 서비스업,35.0263205,127.903457
한빛입시학원,경상남도 하동군 진교면 산복벚꽃길 4,교육 서비스업,35.0329436574,127.9000053467
한빛입시학원,경상남도 하동군 진교면 산복벚꽃길 4 한빛입시학원,교육 서비스업,35.0323942,127.8997033
그린베이커리,"경상남도 하동군 금남면 섬진강대로 971, 101호(대성빌딩)",소매업; 자동차 제외,34.9966837,127.8092495
구미식당,경상남도 하동군 하동읍 문도길 26,음식점 및 주점업,35.0377864,127.7760263
북천식육식당,경상남도 하동군 북천면 경서대로 2441-8,음식점 및 주점업,35.1140268,127.8919537
횡천포차,"경상남도 하동군 횡천면 문화2길 24, 1동 1~4호",음식점 및 주점업,35.1092123,127.8107004
하동청과,경상남도 하동군 하동읍 화심안길 17-10,소매업; 자동차 제외,35.0894188,127.7316197
로뎀나무,경상남도 하동군 화개면 쌍계로 21,음식점 및 주점업,35.1886236,127.6242244
태현이네,경상남도 하동군 화개면 쌍계로 15,소매업; 자동차 제외,35.1880103,127.6240814
대축농원,경상남도 하동군 악양면 악양동로 107,도매 및 상품 중개업,35.1408214,127.70083
팔도강산,경상남도 하동군 하동읍 섬진강대로 2292,음식점 및 주점업,35.0786171,127.7398739
올포유,경상남도 하동군 하동읍 경서대로 156,소매업; 자동차 제외,35.0687927,127.7505954
풀마트,경상남도 하동군 진교면 진교중앙길 3,소매업; 자동차 제외,35.029128,127.9044147
하동참식품,경상남도 하동군 옥종면 이골길 31,식료품 제조업,35.1665915999,127.8901628989
대덕장여관,경상남도 하동군 금남면 금정길 2,숙박업,34.9817389,127.8408516
한진주유소,경상남도 하동군 옥종면 옥종중앙길 104,소매업; 자동차 제외,35.1845227,127.8786471
다우찻집,경상남도 하동군 화개면 화개로 369,소매업; 자동차 제외,35.2167521,127.6375679
하동녹즙,"경상남도 하동군 하동읍 경서대로 141,",소매업; 자동차 제외,35.0681979,127.7493635
통뼈감자탕,"경상남도 하동군 하동읍 시장2길 18,",음식점 및 주점업,35.0697196,127.7506777
강변주유소,경상남도 하동군 하동읍 섬진강대로 2627,소매업; 자동차 제외,35.0951235,127.7096782
인포피알주식회사,경상남도 하동군 하동읍 경서대로 154,기타 제품 제조업,35.0686448,127.7504896
송원리 태양광발전소,경상남도 하동군 진교면 송외길 13,"전기, 가스, 증기 및 공기 조절 공급업",35.0362857,127.9090389
장터국밥,경상남도 하동군 금남면 섬진강대로 973-13,음식점 및 주점업,34.9965836,127.8091065
C&C헤어샵,경상남도 하동군 하동읍 중앙로 31-3,기타 개인 서비스업,35.0705089,127.748951
MVP제우스당구장,경상남도 하동군 하동읍 시장1길 25,스포츠 및 오락관련 서비스업,35.0685171,127.7492846
무끼피자 다촌두마리치킨,"경상남도 하동군 옥종면 옥종중앙길 27,",음식점 및 주점업,35.1776561,127.8796545
봉평메밀촌,경상남도 하동군 화개면 쌍계로 19-1,음식점 및 주점업,35.1882917,127.6241195
청림맛집,경상남도 하동군 화개면 화개로 2-15,음식점 및 주점업,35.1895291,127.6233854
도모이벤트,경상남도 하동군 금남면 영천안길 88-7,소매업; 자동차 제외,34.9904536,127.8073548
여울목,경상남도 하동군 하동읍 시장1길 8-1,음식점 및 주점업,35.0701526,127.7484498
대길 (정수산업),경상남도 하동군 옥종면 문암길 64,음식점 및 주점업,35.2106544,127.8846455
섬진강 자연 재첩,경상남도 하동군 악양면 악양동로 68,식료품 제조업,35.1377055,127.699123
힐러,경상남도 하동군 하동읍 군청로 24 (하동읍내엘에이치천년나무아파트),음식점 및 주점업,35.0663829,127.7502625
키다리칼치조림전문점,경상남도 하동군 하동읍 군청로 24 (하동읍내엘에이치천년나무아파트),음식점 및 주점업,35.0663829,127.7502625
금남가스산소,경상남도 하동군 금남면 주교로 212 금남가스,소매업; 자동차 제외,35.0027806,127.8291109
맛고을식당,경상남도 하동군 진교면 선창길 20-1,음식점 및 주점업,35.0262698,127.9050791
새마을 미용실,경상남도 하동군 악양면 악양동로 379-7,기타 개인 서비스업,35.1614755,127.709506
목도식당,경상남도 하동군 하동읍 목도2길 1,음식점 및 주점업,35.0420141,127.772685
대한주택,경상남도 하동군 진교면 진양로 21 대한주택,전문직별 공사업,35.0257627768,127.9019218445
박재홍뮤직아카데미 학원,경상남도 하동군 하동읍 경서대로 145 1,교육 서비스업,35.0685586778,127.7494820825
대성농장,경상남도 하동군 하동읍 섬진강대로 2549,소매업; 자동차 제외,35.0899758,127.7157782
바른자세 오행쑥뜸방,경상남도 하동군 하동읍 중앙로 58 바른자세오행쑥뜸방2층,소매업; 자동차 제외,35.0711939,127.7465026
금성가스,경상남도 하동군 금성면 궁항중앙길 7 금성가스,소매업; 자동차 제외,34.9742978258,127.7902118068
금성가스,경상남도 하동군 금성면 궁항중앙길 7,소매업; 자동차 제외,34.9742978258,127.7902118068
코스모스 태양광발전소,경상남도 하동군 고전면 고하길 2,"전기, 가스, 증기 및 공기 조절 공급업",35.0268917,127.8380687
씨유 하동금남대박점,경상남도 하동군 금남면 섬진강대로 679,소매업; 자동차 제외,34.9865472,127.8359205
푸른영농,경상남도 하동군 하동읍 소재2길 7,도매 및 상품 중개업,35.0719776,127.7578392
우자미,경상남도 하동군 북천면 가평길 10-32 .,소매업; 자동차 제외,35.1130457,127.8525196
일신가스,경상남도 하동군 화개면 영당2길 7,도매 및 상품 중개업,35.1839045233,127.6283685866
지리산착한농부협동조합,경상남도 하동군 옥종면 한계길 86,스포츠 및 오락관련 서비스업,35.1707424,127.908061
민다리식당,경상남도 하동군 진교면 진교시장길 29,음식점 및 주점업,35.0269311,127.9045667
하동다온주간보호센터,경상남도 하동군 옥종면 옥종중앙길 86-56,사회복지 서비스업,35.1833428,127.8808026
스마트모바일,경상남도 하동군 진교면 민다리길 66,소매업; 자동차 제외,35.0278398,127.903724
풀마트,경상남도 하동군 하동읍 향교1길 16,소매업; 자동차 제외,35.0688555,127.7480127
본죽 경남하동점,경상남도 하동군 하동읍 중앙로 13,음식점 및 주점업,35.0703002,127.7510412
싱싱회판매장,경상남도 하동군 하동읍 시장1길 16-2,음식점 및 주점업,35.0694584,127.7484553
하동수산,경상남도 하동군 금성면 연막길 11,소매업; 자동차 제외,34.9437357,127.7879242
양군오리꽃날개튀김,경상남도 하동군 화개면 화개로 18-3,음식점 및 주점업,35.1898808,127.623663
현이집,경상남도 하동군 하동읍 시장1길 20-2,음식점 및 주점업,35.0690719,127.7482603
지리산면옥,경상남도 하동군 하동읍 군청로 147,음식점 및 주점업,35.0610114,127.7629936
피자스쿨 경남하동점,"경상남도 하동군 하동읍 중앙로 51-1,",음식점 및 주점업,35.0706991,127.7468874
디씨마트,경상남도 하동군 하동읍 시장2길 8,소매업; 자동차 제외,35.0696734,127.7494542
백암산장,경상남도 하동군 청암면 청학로 1809-12,음식점 및 주점업,35.2099561,127.7654802
태성침장,경상남도 하동군 하동읍 시장1길 14-3,소매업; 자동차 제외,35.069665,127.7483053
싱싱회판매장,경상남도 하동군 하동읍 시장1길 14-9,음식점 및 주점업,35.0695775,127.7482858
설가네춘천닭갈비,경상남도 하동군 금남면 섬진강대로 972,음식점 및 주점업,34.9971744,127.8092747
형제식육식당,경상남도 하동군 하동읍 시장2길 15-10,음식점 및 주점업,35.0700692,127.7497524
제일숯불갈비,경상남도 하동군 금성면 신도길 132,음식점 및 주점업,34.9646461,127.7905448
카페하동,경상남도 하동군 하동읍 군청로 24,음식점 및 주점업,35.0663829,127.7502625
윤경이옷가게(건강기능성속옷),경상남도 하동군 하동읍 시장2길 15-9,소매업; 자동차 제외,35.0699036,127.7496094
하동포구주유소,경상남도 하동군 하동읍 섬진강대로 1824,소매업; 자동차 제외,35.0552285,127.7709761
여여식당,경상남도 하동군 하동읍 경서대로 92,음식점 및 주점업,35.0643864,127.7466327
송림장식,경상남도 하동군 하동읍 시장1길 24,소매업; 자동차 제외,35.0685264,127.7489072
도둑골펜션,경상남도 하동군 옥종면 호계천로 224 주택,숙박업,35.196920792,127.859603564
공간장식,경상남도 하동군 하동읍 중앙로 74-1,소매업; 자동차 제외,35.071803,127.7446568
다육화분(각종화분),경상남도 하동군 하동읍 시장1길 9,소매업; 자동차 제외,35.0700558,127.7490223
진교고물상,경상남도 하동군 진교면 새미골길 71,소매업; 자동차 제외,35.0186036,127.8969248
중앙철물,"경상남도 하동군 횡천면 문화1길 12, 1층(횡천시장１호)",소매업; 자동차 제외,35.1084063,127.8105784
청송횟집,경상남도 하동군 화개면 화개로 45 청송식당,음식점 및 주점업,35.1922787,127.6242088
장터푸드,"경상남도 하동군 화개면 쌍계로 15, 주4동 1호",음식점 및 주점업,35.1880103,127.6240814
등대횟집,경상남도 하동군 하동읍 경서대로 245,음식점 및 주점업,35.0714924,127.7591092
금성주유소,경상남도 하동군 금성면 산업로 766,소매업; 자동차 제외,34.9780808,127.7943774
하늘채,경상남도 하동군 하동읍 섬진강대로 2184,음식점 및 주점업,35.0689688,127.7410852
장수식육점,경상남도 하동군 하동읍 중앙1길 9-1,소매업; 자동차 제외,35.0699341,127.7476168
황금코다리 하동점,경상남도 하동군 하동읍 경서대로 147,음식점 및 주점업,35.0685036,127.7497073
현대당,경상남도 하동군 하동읍 시장2길 15-7,소매업; 자동차 제외,35.0699099,127.749824
최학용하동부동산중개사무소,경상남도 하동군 하동읍 경서대로 203,부동산업,35.0714488,127.7544268
대진산업 악양가스,경상남도 하동군 악양면 대축길 4,소매업; 자동차 제외,35.1439062964,127.7028902446
강산건축,경상남도 하동군 악양면 악양서로 365-12,전문직별 공사업,35.1625493,127.7084141
명시당,경상남도 하동군 하동읍 중앙로 20,소매업; 자동차 제외,35.0704209,127.7503597
모텔엘도라도,경상남도 하동군 금남면 경충로 178-18,숙박업,34.9580726,127.8844303
휴정,경상남도 하동군 화개면 화개로 1405-16 휴정펜션,숙박업,35.2868456,127.6484744
휴정,경상남도 하동군 화개면 화개로 1405-16,숙박업,35.2868455848,127.6484744498
해왕재첩,"경상남도 하동군 하동읍 부두길 20, 1층",음식점 및 주점업,35.0585255,127.7654078
진교스토아,경상남도 하동군 진교면 민다리길 47,소매업; 자동차 제외,35.0259966,127.9038589
사랑애견샵,경상남도 하동군 하동읍 중앙로 23-1,소매업; 자동차 제외,35.0702382,127.7498629
올리비아로렌하동점,"경상남도 하동군 하동읍 중앙로 23-1,",소매업; 자동차 제외,35.0702382,127.7498629
너뱅이한밭식당,경상남도 하동군 하동읍 군청로 32 라포엠  현장식당,음식점 및 주점업,35.0645803,127.7500335
청하식당,경상남도 하동군 횡천면 횡천강변길 1,음식점 및 주점업,35.1095649,127.809827
장터국밥,경상남도 하동군 화개면 쌍계로 17,음식점 및 주점업,35.1880873,127.6238522
에쓰오일,경상남도 하동군 금남면 경제산업로 154,소매업; 자동차 제외,34.9822043,127.8158769
명랑핫도그 하동점,"경상남도 하동군 하동읍 중앙로 26,",음식점 및 주점업,35.0704728,127.7498077
섬진강쉼터,"경상남도 하동군 금남면 섬진강대로 977-17, 점포 7동 1호2호(계천시장)",소매업; 자동차 제외,34.9959881,127.8094996
참좋은날,경상남도 하동군 화개면 쌍계로 21,소매업; 자동차 제외,35.1886236,127.6242244
비에이치씨(BHC)경남하동점,"경상남도 하동군 하동읍 경서대로 159,",음식점 및 주점업,35.0693012,127.7504542
요거프레소 하동 터미널점,경상남도 하동군 하동읍 중앙로 19-1,음식점 및 주점업,35.0701353,127.7502759
쌍계명차,경상남도 하동군 화개면 화개로 30,소매업; 자동차 제외,35.1909068,127.6242224
두부나라,경상남도 하동군 하동읍 시장2길 5,식료품 제조업,35.0698323,127.7492684
덕천부동산중개사무소,경상남도 하동군 금남면 주교로 57-3 덕천부동산중개사무소,부동산업,34.9911159,127.8359286
㈜태봉철강,경상남도 하동군 하동읍 화심길 218,1차 금속 제조업,35.0890124,127.7278871
동하떡방앗간,경상남도 하동군 하동읍 시장2길 8,식료품 제조업,35.0696734,127.7494542
산여울,경상남도 하동군 화개면 화개로 708,숙박업,35.2458168893,127.6426373851
한아름플라워,경상남도 하동군 하동읍 경서대로 111,소매업; 자동차 제외,35.065473,127.7482648
편의점사랑,경상남도 하동군 악양면 평사리길 50,소매업; 자동차 제외,35.1540434,127.688834
부부송밀면,경상남도 하동군 악양면 평사리길 44,음식점 및 주점업,35.153603,127.6892917
아이엔지마트,경상남도 하동군 횡천면 경서대로 1138,소매업; 자동차 제외,35.1095783,127.8100051
월드국제결혼정보사,"경상남도 하동군 진교면 민다리안길 97, 102동 1호(진교아파트 제상가 1층)",기타 개인 서비스업,35.0272412,127.9027021
진교열쇠도장,경상남도 하동군 진교면 민다리길 80,소매업; 자동차 제외,35.0287682444,127.9028017794
청조마트,경상남도 하동군 화개면 화개로 18-4 청조마트,소매업; 자동차 제외,35.1899488,127.6239098
우정미용실,경상남도 하동군 하동읍 중앙로 21,기타 개인 서비스업,35.0701590209,127.7501232698
우정미용실,경상남도 하동군 하동읍 중앙로 21 우정미용실,기타 개인 서비스업,35.0701228,127.7501482
서희와 길상이,경상남도 하동군 악양면 평사리길 45-1,소매업; 자동차 제외,35.1537123328,127.6890002741
황가네 농장,"경상남도 하동군 옥종면 양구2길 44, 1층",소매업; 자동차 제외,35.1772927,127.8756424
엔지피 하동지사,경상남도 하동군 하동읍 섬진강대로 2168 오룡빌라303,사업 지원 서비스업,35.0675214,127.7411199
숯불구이구이,경상남도 하동군 진교면 진교중앙길 15,음식점 및 주점업,35.0288196,127.9031653
전주단지네,경상남도 하동군 진교면 진교시장길 17-3,음식점 및 주점업,35.0276126,127.904833
진주식당,경상남도 하동군 진교면 진교중앙길 14-8,음식점 및 주점업,35.0295276,127.9031696
남해주유소,경상남도 하동군 진교면 민다리안길 9,소매업; 자동차 제외,35.0343892,127.9039205
GS칼텍스 기성주유소,경상남도 하동군 횡천면 경서대로 1173,소매업; 자동차 제외,35.1093650205,127.8138811289
GS칼텍스 진교주유소,경상남도 하동군 진교면 민다리길 21,소매업; 자동차 제외,35.0239013638,127.9034193879
황궁쟁반짜장,경상남도 하동군 진교면 민다리길 102,음식점 및 주점업,35.0306639,127.9018733
샛담추어탕,경상남도 하동군 진교면 경충로 1049,음식점 및 주점업,35.0271436,127.905509
블루핸즈진교점,경상남도 하동군 진교면 경충로 1069,개인 및 소비용품 수리업,35.0289111,127.9044492
예삐꽃방,경상남도 하동군 하동읍 경서대로 143-1,소매업; 자동차 제외,35.0682376,127.7494897
예삐꽃방,경상남도 하동군 하동읍 경서대로 143-1,소매업; 자동차 제외,35.0682375732,127.7494893427
섬진강횟집,경상남도 하동군 하동읍 섬진강대로 2539-8,음식점 및 주점업,35.089046,127.7161928
비바체카페,경상남도 하동군 청암면 청학로 876,음료 제조업,35.1626526,127.7827859
비바체편의점,경상남도 하동군 청암면 청학로 876,소매업; 자동차 제외,35.1626526,127.7827859
비바체레스토랑,경상남도 하동군 청암면 청학로 876,음식점 및 주점업,35.1626526,127.7827859
설가네춘천닭갈비,경상남도 하동군 하동읍 중앙2길 14,음식점 및 주점업,35.0696991,127.747037
하동광고사,경상남도 하동군 하동읍 경서대로 130,전문 서비스업,35.0669152,127.7491883
평사리주유소,경상남도 하동군 악양면 섬진강대로3428,소매업; 자동차 제외,35.1534233,127.6696719
평사리주유소,경상남도 하동군 악양면 섬진강대로3428,소매업; 자동차 제외,35.1533729809,127.6696286012
화정식당,경상남도 하동군 하동읍 중앙2길 6-7,음식점 및 주점업,35.0703872,127.746543
다미향,경상남도 하동군 하동읍 하동공원길 99,음식점 및 주점업,35.0701613,127.7445559
슬로푸드 주식회사 농업회사법인,경상남도 하동군 하동읍 화심길 317-14,식료품 제조업,35.0908882623,127.7179301037
청석골 감로다원,경상남도 하동군 화개면 모암길 44,식료품 제조업,35.2468329,127.6391165
조은자동차정비,경상남도 하동군 진교면 민다리안길 15 조은자동차정비,개인 및 소비용품 수리업,35.0336046,127.9034668
조은자동차정비,경상남도 하동군 진교면 민다리안길 15,개인 및 소비용품 수리업,35.0336045755,127.9034665513
국수나무,경상남도 하동군 하동읍 중앙로 13,음식점 및 주점업,35.0703002,127.7510412
그랜드태양광발전소,경상남도 하동군 양보면 중하쌍길 78-1,"전기, 가스, 증기 및 공기 조절 공급업",35.0755289,127.8237744
대성종합가스,경상남도 하동군 금남면 덕오길 142,소매업; 자동차 제외,34.9652576,127.8399488
부산산꼼장어,경상남도 하동군 금성면 금성중앙길 58,음식점 및 주점업,34.9663887,127.7989197
경남일보,경상남도 하동군 하동읍 중서2길 1,소매업; 자동차 제외,35.0713332,127.7463601
정안 건축,경상남도 하동군 금성면 금성로 390(1층),전문직별 공사업,34.9580027,127.7806637
스타웨이 리센트,경상남도 하동군 악양면 섬진강대로 3358-110 1층,소매업; 자동차 제외,35.1492351,127.680459
베토벤피아노교습소,경상남도 하동군 옥종면 옥종중앙길 75 베토벤피아노교습소,교육 서비스업,35.1820644,127.8791837
하동바른농장,경상남도 하동군 횡천면 구학길 12-159,도매 및 상품 중개업,35.0689175,127.7936097
양탕국커피문화원,경상남도 하동군 적량면 공드림재길 155,소매업; 자동차 제외,35.0984652,127.7792135
하동전통한과 식당,경상남도 하동군 하동읍 고서길 67-41,음식점 및 주점업,35.0906311,127.7361153
배스킨라빈스 경남하동점,경상남도 하동군 하동읍 경서대로 143,음식점 및 주점업,35.0681262,127.7494897
삼성프라자,경상남도 하동군 하동읍 하마길 45-1,소매업; 자동차 제외,35.0708658,127.7520386
카페이즈,경상남도 하동군 하동읍 경서대로 144,음식점 및 주점업,35.0678931,127.7498165
대가손짜장,경상남도 하동군 금남면 사궁길 1,음식점 및 주점업,34.9970207,127.8101106
고전가스,경상남도 하동군 고전면 하동읍성로 295,소매업; 자동차 제외,35.0177460739,127.8168285417
오리랑 국밥이랑,경상남도 하동군 금남면 섬진강대로 983,음식점 및 주점업,34.9973296,127.8077597
참크리닝하동점,경상남도 하동군 하동읍 경서대로 126-1,기타 개인 서비스업,35.0665731,127.7490889
오서방네,경상남도 하동군 화개면 쌍계로 21,소매업; 자동차 제외,35.1886236,127.6242244
동훈참기름,경상남도 하동군 하동읍 시장1길 9,식료품 제조업,35.0700558,127.7490223
씨유 하동화력발전소점,경상남도 하동군 금성면 경제산업로509,소매업; 자동차 제외,34.9516292,127.8205132
동성식육식당,경상남도 하동군 진교면 민다리길 15-16,음식점 및 주점업,35.0243451,127.9023011
보람산장,경상남도 하동군 화개면 쌍계로 537,음식점 및 주점업,35.2274555,127.6440434
사랑채식당,경상남도 하동군 악양면 평사리길 45,음식점 및 주점업,35.1533839,127.6891739
평사리샵,경상남도 하동군 악양면 평사리길28,음식점 및 주점업,35.1522039,127.6897649
지리산 꽃다연,경상남도 하동군 악양면 평사리길 28,식료품 제조업,35.1522039,127.6897649
쌍계수석원식당,경상남도 하동군 화개면 쌍계로 571-2,음식점 및 주점업,35.2300442,127.6429992
팔모정 식당,경상남도 하동군 화개면 쌍계로 567,음식점 및 주점업,35.229884,127.6434157
팥 이야기,경상남도 하동군 악양면 악양서로 221-13,음식점 및 주점업,35.15575,127.6982016
파이나무,경상남도 하동군 악양면 악양서로 129,식료품 제조업,35.1504059,127.6911265
라온 옷카페,경상남도 하동군 악양면 평사리길 56-1,소매업; 자동차 제외,35.1544210343,127.6884965836
악양면,경상남도 하동군 악양면 악양서로 229,음식점 및 주점업,35.1559575,127.69918
해송복정,경상남도 하동군 진교면 민다리길 13,음식점 및 주점업,35.0231906,127.9031301
제일농약사,경상남도 하동군 진교면 민다리길 74,소매업; 자동차 제외,35.0283906,127.90316
강바다,경상남도 하동군 하동읍 중앙2길 10,음식점 및 주점업,35.0701019,127.7471241
중앙농약사,경상남도 하동군 진교면 경충로 1004,소매업; 자동차 제외,35.0236183,127.9064283
화산상회,경상남도 하동군 하동읍 경서대로 227,소매업; 자동차 제외,35.0718492,127.7571992
칸타타,경상남도 하동군 하동읍 섬진강대로 1880,음식점 및 주점업,35.0593845,127.7665418
힐링벨리,경상남도 하동군 화개면 부춘길 184,숙박업,35.1765158,127.6579148
씨유 하동화개장터점,경상남도 하동군 화개면 쌍계로 10,소매업; 자동차 제외,35.1877409,127.6248902
성진칼국수,경상남도 하동군 하동읍 중앙2길 3,음식점 및 주점업,35.0705449,127.7474887
고래점빵,경상남도 하동군 악양면 평사리길 56-1,소매업; 자동차 제외,35.1544868127,127.6883572101
장안부식,경상남도 하동군 진교면 민다리길 56-1,소매업; 자동차 제외,35.02689,127.9037437
현대상회,경상남도 하동군 진교면 선창길 24,소매업; 자동차 제외,35.0271737,127.903816
새진교철물백화점,경상남도 하동군 진교면 민다리안길 72-8,소매업; 자동차 제외,35.0295316,127.9007141
새금철상회,경상남도 하동군 진교면 민다리길 56-1,소매업; 자동차 제외,35.02689,127.9037437
생선마트,경상남도 하동군 진교면 민다리길 62-4,소매업; 자동차 제외,35.0273292,127.9036655
송죽일미,경상남도 하동군 양보면 진양로 727,음식점 및 주점업,35.0465348,127.8454797
콩사랑 차이야기,경상남도 하동군 화개면 화개로 52,음식점 및 주점업,35.192762,127.6246991
청탑사진관,경상남도 하동군 하동읍 경서대로 154,"기타 전문, 과학 및 기술 서비스업",35.0686448,127.7504896
다사책방,경상남도 하동군 하동읍 시장1길 14,도매 및 상품 중개업,35.069572,127.7487435
대천회센타,경상남도 하동군 옥종면 옥종중앙길 48-1,음식점 및 주점업,35.179738,127.8800546
샤인헤어,경상남도 하동군 옥종면 옥종중앙길 42,기타 개인 서비스업,35.178991,127.8799314
뜨락,경상남도 하동군 옥종면 옥종중앙길 46,음식점 및 주점업,35.1793583,127.8798842
고기천국,경상남도 하동군 하동읍 향교1길 13,음식점 및 주점업,35.0682777,127.7482942
황의보감,경상남도 하동군 적량면 경서대로 356,음식점 및 주점업,35.0698992,127.7696267
썸네일,경상남도 하동군 하동읍 중앙1길 5-2,기타 개인 서비스업,35.0702475,127.7477321
남풍네 콩나물국밥,경상남도 하동군 하동읍 시장1길 10-4,음식점 및 주점업,35.070023,127.7481583
그날,경상남도 하동군 진교면 경충로 1010-1 (진교면),음식점 및 주점업,35.0241232,127.9067926
후니네,경상남도 하동군 하동읍 군청로 149-1,소매업; 자동차 제외,35.061099,127.7633772
아씨국수,경상남도 하동군 악양면 평사리길 28,음식점 및 주점업,35.1522039,127.6897649
풀하우스,경상남도 하동군 하동읍 중앙로 28,소매업; 자동차 제외,35.0706388,127.749529
하동이불,경상남도 하동군 하동읍 시장1길 6,소매업; 자동차 제외,35.0703345,127.7485939
동아상회,경상남도 하동군 하동읍 시장2길 1,소매업; 자동차 제외,35.0698043,127.7489367
둘이식당,경상남도 하동군 하동읍 시장1길 19-1,음식점 및 주점업,35.0690063,127.7490929
부자꽃방,경상남도 하동군 하동읍 경서대로 136,소매업; 자동차 제외,35.0673131,127.7492978
선물의집&찻집휴게소,경상남도 하동군 화개면 쌍계사길 6,음식점 및 주점업,35.2301572,127.6443522
새쌍화점,경상남도 하동군 화개면 쌍계로 564,소매업; 자동차 제외,35.2297139,127.6438322
사찰국수,경상남도 하동군 화개면 쌍계사길 6,음식점 및 주점업,35.2301572,127.6443522
조은광고,경상남도 하동군 하동읍 경서대로 152,전기장비 제조업,35.0685059108,127.7503629274
그레이,경상남도 하동군 하동읍 예인촌길 13,음식점 및 주점업,35.1208295,127.698445
바다풍경,경상남도 하동군 하동읍 중앙2길 12,음식점 및 주점업,35.0698694,127.7470665
브람스를 좋아하세요,경상남도 하동군 하동읍 중앙3길 5,음식점 및 주점업,35.0704857,127.7464557
옛날손짜장,경상남도 하동군 하동읍 중앙로 71,음식점 및 주점업,35.0714709,127.7449617
서희플레이스,경상남도 하동군 악양면 평사리길 59-1,음식점 및 주점업,35.1542868,127.6878715
"보신정재첩, 참게탕",경상남도 하동군 하동읍 섬진강대로 2564,음식점 및 주점업,35.0910077,127.7147398
가마솥찐빵,경상남도 하동군 하동읍 섬진강대로 2176,음식점 및 주점업,35.0683378,127.7409953
진고개,경상남도 하동군 하동읍 중앙2길 5,음식점 및 주점업,35.0703057,127.7474679
돈치킨 하동점,경상남도 하동군 하동읍 중앙2길 10-8,음식점 및 주점업,35.0701105,127.7467798
원탑갈비식육식당,경상남도 하동군 화개면 화개로 4,음식점 및 주점업,35.1890943,127.6224925
엄마찬'S,경상남도 하동군 하동읍 시장1길 26-12,소매업; 자동차 제외,35.068724,127.7485645
미정오리,경상남도 하동군 진교면 선창길 26,음식점 및 주점업,35.0264457,127.9043039
온천매점,경상남도 하동군 옥종면 세종태실로 573,소매업; 자동차 제외,35.1569186,127.8920622
호봉회가든,경상남도 하동군 옥종면 옥단로 642-24,음식점 및 주점업,35.1524454,127.884047
산호 아구찜,경상남도 하동군 옥종면 세종태실로 573,음식점 및 주점업,35.1569186,127.8920622
동원식당,경상남도 하동군 양보면 진양로 731,음식점 및 주점업,35.0467706,127.8453099
횡천떡방앗간,경상남도 하동군 횡천면 문화2길 19-1,식료품 제조업,35.1090922,127.8103349
외교부 하동군청,경상남도 하동군 하동읍 군청로 23,"공공 행정, 국방 및 사회보장 행정",35.067333,127.751275
하늘꼬마키즈풀빌라,경상남도 하동군 북천면 경서대로 1943-15,숙박업,35.1169173,127.8457618
전라도 식당,경상남도 하동군 화개면 쌍계사길 6,음식점 및 주점업,35.2301572,127.6443522
진교가전랜드,경상남도 하동군 진교면 민다리길 72-1,소매업; 자동차 제외,35.028322,127.9032184
L.명일 헤어샵,경상남도 하동군 진교면 민다리길 59,기타 개인 서비스업,35.0271693,127.9033008
청하 가마솥밥,경상남도 하동군 진교면 민다리길 106,음식점 및 주점업,35.0309282,127.9017409
천보식당 식육점,경상남도 하동군 횡천면 경서대로 1140,음식점 및 주점업,35.1094703,127.8102546
굽네치킨 하동점,경상남도 하동군 하동읍 경서대로 106,음식점 및 주점업,35.0649587,127.7480991
소라수산,경상남도 하동군 금남면 노량해안길 33,소매업; 자동차 제외,34.9481915,127.8624857
락궁,경상남도 하동군 금성면 금성로 70-2,음식점 및 주점업,34.9740214,127.7916212
청정영농사,경상남도 하동군 횡천면 경서대로 1152,도매 및 상품 중개업,35.1089251,127.8115693
핍치스,경상남도 하동군 화개면 화개로 11,음식점 및 주점업,35.1896335,127.622891
Klm's 영재 교육 학원,경상남도 하동군 하동읍 경서대로 223,교육 서비스업,35.0718322,127.756724
협동조합노리터,경상남도 하동군 금남면 금정길 73-23,사업 지원 서비스업,34.9798196,127.8491826
옥종시장집,"경상남도 하동군 옥종면 옥종시장길 5 (옥종면, 옥종공설시장)",음식점 및 주점업,35.1821371,127.8802023
목화꽃집,경상남도 하동군 진교면 민다리길 91,소매업; 자동차 제외,35.0298516312,127.9018839204
쭈꾸미스토리,경상남도 하동군 하동읍 중앙2길 10-6,음식점 및 주점업,35.0701054,127.7468848
장미분식,경상남도 하동군 하동읍 경서대로 112,음식점 및 주점업,35.0652264,127.7485193
근우여관,경상남도 하동군 하동읍 향교1길 41,숙박업,35.0699474,127.7459491
그린정보시스템,경상남도 하동군 하동읍 중앙로 93 (하동읍),소매업; 자동차 제외,35.0725332177,127.7428075483
몰리엔도카페,경상남도 하동군 진교면 민다리안길 93,식료품 제조업,35.0276996,127.9024432
데일리에스프레소,경상남도 하동군 하동읍 경서대로 158,음식점 및 주점업,35.0689498,127.750763
아모레 카운셀러_양길*,"경상남도 하동군 하동읍 중앙로 12, 2층 (하동시외버스터미널)",소매업; 자동차 제외,35.0706574,127.751141
아모레 카운셀러_김옥*,"경상남도 하동군 하동읍 중앙로 12, 2층 (하동시외버스터미널)",소매업; 자동차 제외,35.0706574,127.751141
아모레 카운셀러_박소*,"경상남도 하동군 하동읍 중앙로 12, 2층 (하동시외버스터미널)",소매업; 자동차 제외,35.0706574,127.751141
아모레 카운셀러_조순*,"경상남도 하동군 하동읍 중앙로 12, 2층 (하동시외버스터미널)",소매업; 자동차 제외,35.0706574,127.751141
아모레 카운셀러_백주*,"경상남도 하동군 하동읍 중앙로 12, 2층 (하동시외버스터미널)",소매업; 자동차 제외,35.0706574,127.751141
영남태권도장,경상남도 하동군 진교면 산복벚꽃길 6,교육 서비스업,35.0328406595,127.899892553
영남태권도장,경상남도 하동군 진교면 산복벚꽃길 6 (영남태권도장),교육 서비스업,35.0328537,127.8998953
하동천막사,경상남도 하동군 하동읍 시장1길 10-1,기타 개인 서비스업,35.0699262,127.7485591
민속떡방앗간,경상남도 하동군 하동읍 시장1길 22,식료품 제조업,35.0686673,127.7488938
녹산들건강마을,경상남도 하동군 진교면 선창길 24,도매 및 상품 중개업,35.0271737,127.903816
하동미곡상회,경상남도 하동군 하동읍 시장1길 10,도매 및 상품 중개업,35.0699425834,127.7486684278
삼성상회,"경상남도 하동군 하동읍 시장1길 12-2, 하동시장 삼성상회",기타 개인 서비스업,35.0698084,127.7483809
잔치떡방앗간,경상남도 하동군 하동읍 시장2길 5,기타 개인 서비스업,35.0698323,127.7492684
유신상회,경상남도 하동군 하동읍 시장1길 14-7,기타 개인 서비스업,35.0695684,127.7480543
토담,경상남도 하동군 하동읍 시장1길 14-9,음식점 및 주점업,35.0695775,127.7482858
창조사,경상남도 하동군 화개면 쌍계로 21,소매업; 자동차 제외,35.1886236,127.6242244
장보고수산,경상남도 하동군 하동읍 시장1길 14-2,소매업; 자동차 제외,35.0696337,127.7484857
진향,"경상남도 하동군 화개면 쌍계로 19, 4호",도매 및 상품 중개업,35.1885912,127.6244431
장터일기,경상남도 하동군 화개면 쌍계로 15,기타 개인 서비스업,35.1880103,127.6240814
옥이네 화송고버섯,경상남도 하동군 화개면 쌍계로 19,소매업; 자동차 제외,35.1885912,127.6244431
GS25하동진교점,경상남도 하동군 진교면 들포길 38 (미진스위트빌),소매업; 자동차 제외,35.0214371,127.9031962
하동수산,경상남도 하동군 하동읍 시장1길 18-3,기타 개인 서비스업,35.0692999,127.7482463
파랑새,경상남도 하동군 하동읍 시장1길 14-3,소매업; 자동차 제외,35.069665,127.7483053
GS25하동금남점,경상남도 하동군 금남면 섬진강대로 672,소매업; 자동차 제외,34.9867351,127.8366294
흥농농약사,"경상남도 하동군 하동읍 시장1길 12-2, 흥농농약사",기타 개인 서비스업,35.0698084366,127.7483806215
청학동장터국밥,경상남도 하동군 하동읍 시장1길 26-27,음식점 및 주점업,35.069095,127.7478772
제일지업사,"경상남도 하동군 하동읍 시장1길 12-2, 하동공설시장 제일지업사",소매업; 자동차 제외,35.0698084366,127.7483806215
남풍청과,경상남도 하동군 하동읍 시장1길 8,소매업; 자동차 제외,35.0700921,127.7486329
섬진강토종재첩식당,경상남도 하동군 하동읍 시장1길 24,기타 개인 서비스업,35.0685264,127.7489072
금오산참숯가마,경상남도 하동군 금남면 경충로 427-114,음식점 및 주점업,34.9751607,127.8874848
세븐일레븐 하동읍내점,경상남도 하동군 하동읍 중앙로 54,소매업; 자동차 제외,35.0710953,127.7468524
토지아트샵,경상남도 하동군 악양면 평사리길 51,소매업; 자동차 제외,35.1540527,127.6885502
하나인테리어,경상남도 하동군 금남면 경제산업로 43,"기타 전문, 과학 및 기술 서비스업",34.9870066,127.8264483
하동우리들식당,경상남도 하동군 금남면 섬진강대로 957,기타 개인 서비스업,34.9958188,127.8102616
신세계설비,경상남도 하동군 하동읍 군청로 57-15,"건축 기술, 엔지니어링 및 기타 과학기술 서비스업",35.0644823,127.7550372
가화일식,경상남도 하동군 하동읍 경서대로 145,음식점 및 주점업,35.0683045,127.7495234
GS25하동진교IC점,경상남도 하동군 진교면 민다리안길 13,소매업; 자동차 제외,35.0338624,127.9038198
호식이두마리치킨하동중앙점,경상남도 하동군 하동읍 향교1길 13,음식점 및 주점업,35.0682777,127.7482942
둘둘치킨,경상남도 하동군 하동읍 시장1길 26-35,음식점 및 주점업,35.0693321,127.7476415
하동솔잎돼지연농조합법인,경상남도 하동군 횡천면 횡보길 2-6,소매업; 자동차 제외,35.1103949,127.8092438
풍농자재백화점,경상남도 하동군 옥종면 옥종중앙길 81-1,소매업; 자동차 제외,35.1826637277,127.8790128734
양식품,경상남도 하동군 옥종면 주포중앙길 42-1,소매업; 자동차 제외,35.1804414,127.8798226
씨유켄싱턴리조트하동점,경상남도 하동군 화개면 쌍계로 532-6,소매업; 자동차 제외,35.226522,127.6443695
샤방샤방,경상남도 하동군 하동읍 시장1길 8-3,소매업; 자동차 제외,35.0701501,127.7479919
청학하늘정원,경상남도 하동군 청암면 청학로 1809-62,숙박업,35.2065662,127.763559
씨유하동진교점,경상남도 하동군 진교면 진교중앙길 21,소매업; 자동차 제외,35.0286222,127.9025151
은성식당,경상남도 하동군 화개면 섬진강대로 3917,음식점 및 주점업,35.1795742,127.6313205
씨유하동옥종청룡점,경상남도 하동군 옥종면 옥종중앙길 50-1,소매업; 자동차 제외,35.1798031,127.8798885
큰새미,경상남도 하동군 하동읍 향교2길 1-6,음식점 및 주점업,35.0701557,127.744357
한진전기전화공사,경상남도 하동군 하동읍 하마길 72,소매업; 자동차 제외,35.0706085,127.7496829
큐박스,경상남도 하동군 진교면 달구지길 40,숙박업,34.9959744,127.8989599
씨유하동터미널점,경상남도 하동군 하동읍 중앙로 12,소매업; 자동차 제외,35.0706574,127.751141
씨유전도365점,경상남도 하동군 금남면 섬진강대로 976,소매업; 자동차 제외,34.9973203,127.8091217
시골밥상,경상남도 하동군 하동읍 경서대로 109,음식점 및 주점업,35.0653088,127.7480832
오광정,경상남도 하동군 횡천면 문화3길 30,음식점 및 주점업,35.1118086,127.8116956
삼일약국,경상남도 하동군 하동읍 중앙로 18,소매업; 자동차 제외,35.0705341,127.750606
카페쉼표,경상남도 하동군 옥종면 주포중앙길 33-1,음식점 및 주점업,35.1801099,127.8806764
사철분식,경상남도 하동군 횡천면 문화2길 24,음식점 및 주점업,35.1092123,127.8107004
산들화,경남 하동군 하동읍 중앙로 46,소매업; 자동차 제외,35.0708914992,127.7476053055
산들화,경남 하동군 하동읍 중앙로 46,소매업; 자동차 제외,35.0708915,127.7476056
만들다,경상남도 하동군 진교면 민다리안길 97 (진교아파트),교육 서비스업,35.0272412,127.9027021
만들다,경상남도 하동군 진교면 민다리안길 97 (진교아파트),교육 서비스업,35.0272768221,127.9027255523
3층사진관펜션,경상남도 하동군 화개면 쌍계로 478,숙박업,35.2223356,127.6422052
대한침구현대장식,경상남도 하동군 하동읍 시장1길 8-4,소매업; 자동차 제외,35.0699445,127.7479375
짜짜루,경상남도 하동군 하동읍 중앙1길 10-1,음식점 및 주점업,35.0699602,127.7474291
엘지전자 하동대리점,경상남도 하동군 하동읍 경서대로167,도매 및 상품 중개업,35.0699554777,127.7510148098
유샤브샤브,경상남도 하동군 하동읍 향교1길 48-1,음식점 및 주점업,35.0704409,127.7453564
빙그레할인마트,경상남도 하동군 횡천면 경서대로 1139,소매업; 자동차 제외,35.1097951,127.8104338
눈앤안경,경상남도 하동군 하동읍 경서대로 162,소매업; 자동차 제외,35.0693299,127.7510839
고려의원,경상남도 하동군 하동읍 동광길 1,보건업,35.0709004,127.7485841
서울미보약국,경상남도 하동군 하동읍 중앙로 33,소매업; 자동차 제외,35.0705141,127.7488276
가릉,경상남도 하동군 하동읍 중앙로 120,음식점 및 주점업,35.0742645,127.7407085
엄마손국수,경상남도 하동군 진교면 민다리길 88 (흥도숯불갈비),음식점 및 주점업,35.0293975,127.9024526
제주횟집,경상남도 하동군 금성면 금성중앙길 36,음식점 및 주점업,34.9662407,127.7965199
소문난국밥,경상남도 하동군 옥종면 옥종중앙길88,음식점 및 주점업,35.1830949,127.8792639
불꼬쟁이,경상남도 하동군 옥종면 은행나무길 35-35,음식점 및 주점업,35.1794247,127.8722995
옥종명가,"경상남도 하동군 옥종면 은행나무길74-2,",음식점 및 주점업,35.180377,127.8788223
한일식당,경상남도 하동군 금남면 노량해안길 5,음식점 및 주점업,34.9486821,127.859747
하나씽크 인테리어,경상남도 하동군 금남면 섬진강대로 706,가구 제조업,34.988028686,127.8335919271
영호수산,경상남도 하동군 금남면 제먼당길 110,소매업; 자동차 제외,34.9484846,127.8607629
밀레하동점,경상남도 하동군 하동읍 중앙로 48-1,소매업; 자동차 제외,35.0709432,127.7473366
하나로마트 하동농협 적량점,경상남도 하동군 적량면 적량로 114,소매업; 자동차 제외,35.0849571,127.776125
하나로마트 하동농협 중앙점,경상남도 하동군 하동읍 경서대로 171,소매업; 자동차 제외,35.0702322,127.7513341
하나로마트 화개악양농협 악양지점,경상남도 하동군 악양면 악양서로 347,소매업; 자동차 제외,35.1612906,127.709005
하나로마트 화개악양농협 본점,경상남도 하동군 화개면 화개로 26-1,소매업; 자동차 제외,35.1905809,127.6243063
하나로마트 금남농협 금성점,경상남도 하동군 금성면 신도길 127,금융 및 보험관련 서비스업,34.9640993,127.7905039
하나로마트 금오농협 본점,경상남도 하동군 양보면 진양로 739,금융업,35.0469587,127.8442004
흥부식당,"경상남도 하동군 양보면 진양로736-1,",음식점 및 주점업,35.0472638,127.845415
하나로마트 지리산청학농협,경상남도 하동군 횡천면 문화1길 5,금융 및 보험관련 서비스업,35.108865,127.8111818
하나로마트 지리산청학농협 청암지점,경상남도 하동군 청암면 청학로 650,소매업; 자동차 제외,35.155272,127.8015235
하나로마트 하동축산농협,경상남도 하동군 하동읍 경서대로 165,소매업; 자동차 제외,35.0696759,127.7508799
골드퀸,경상남도 하동군 하동읍 시장1길 7,소매업; 자동차 제외,35.0701976,127.7488793
보문서점,경상남도 하동군 하동읍 중앙로 25,소매업; 자동차 제외,35.0702704,127.7496906
성남식당,경상남도 하동군 청암면 청학동길 15-18,음식점 및 주점업,35.2431049,127.7101227
고향식당,경상남도 하동군 청암면 청학동길 78,음식점 및 주점업,35.2467275,127.7085707
고운화식당,경상남도 하동군 금남면 제먼당길 92-1,음식점 및 주점업,34.9495233,127.8596143
다원반점,경상남도 하동군 금남면 섬진강대로 671,음식점 및 주점업,34.9861505,127.8367676
그린베이커리,경상남도 하동군 금남면 섬진강대로 971,음식점 및 주점업,34.9966837,127.8092495
그린회센타,경상남도 하동군 금남면 섬진강대로 971,음식점 및 주점업,34.9966837,127.8092495
사랑치과의원,경상남도 하동군 금남면 섬진강대로 966,보건업,34.9969322,127.8098843
명성약국,경상남도 하동군 금남면 섬진강대로 971,소매업; 자동차 제외,34.9966837,127.8092495
전주식당,경상남도 하동군 금남면 섬진강대로 668,음식점 및 주점업,34.9866209,127.8372032
광평,경상남도 하동군 하동읍 송림1길 6,음식점 및 주점업,35.064876,127.7481464
소문난 김밥,경상남도 하동군 하동읍 경서대로 138,음식점 및 주점업,35.0675388,127.7494595
그늘집스크린골프,경상남도 하동군 하동읍 경서대로 144,스포츠 및 오락관련 서비스업,35.0678931,127.7498165
롯데리아 경남하동점,경상남도 하동군 하동읍 경서대로 149,음식점 및 주점업,35.0685931,127.7498631
바다전원,경상남도 하동군 금남면 중평큰골목길 16-1,숙박업,34.9749727589,127.9073358663
바다양품이동태탕,"경상남도 하동군 고전면 재첩길5-8,",음식점 및 주점업,34.9980461,127.8054343
명교식당,경상남도 하동군 고전면 하동읍성로803,음식점 및 주점업,35.031575,127.8507715
상추쌈출판사,경상남도 하동군 악양면 부계1길 8,출판업,35.1701495,127.7129687
빅마트,"경상남도 하동군 금남면 섬진강대로968,",소매업; 자동차 제외,34.9970695,127.8097546
영품식물원화원꽃집,경상남도 하동군 하동읍 시장3길 13,소매업; 자동차 제외,35.0687701,127.7500149
코코넛헤어,경상남도 하동군 하동읍 중앙로 24,기타 개인 서비스업,35.0704308,127.7501059
김밥천국,경상남도 하동군 하동읍 경서대로 160,음식점 및 주점업,35.0691449,127.7509125
비비큐,경상남도 하동군 하동읍 경서대로 156,음식점 및 주점업,35.0687927,127.7505954
하동우리들병원,경상남도 하동군 금남면 섬진강대로 957,보건업,34.9958188,127.8102616
금호장식,경상남도 하동군 진교면 진교중앙길 21,소매업; 자동차 제외,35.0286222,127.9025151
백합머리방,경상남도 하동군 진교면 민다리길 73,기타 개인 서비스업,35.0282443,127.9026893
연지곤지화장품,경상남도 하동군 진교면 민다리길 73,소매업; 자동차 제외,35.0282443,127.9026893
피자듀엣,경상남도 하동군 진교면 민다리길 97,음식점 및 주점업,35.0302606,127.9017185
주식회사 드론고,경상남도 하동군 진교면 들포길 40,전문직별 공사업,35.0210333,127.90323
성원낙지,경상남도 하동군 진교면 진교시장길 35,음식점 및 주점업,35.0264478,127.9047937
하프타임 화개장터점,경상남도 하동군 화개면 쌍계로 24,소매업; 자동차 제외,35.1888322,127.6247791
하동팔팔민물장어,경상남도 하동군 고전면 재첩길 120,음식점 및 주점업,34.9993305,127.7958985
풍년농약사,경상남도 하동군 옥종면 옥종중앙길 75,도매 및 상품 중개업,35.1820644,127.8791837
진주식당,경상남도 하동군 옥종면 덕천로18-1,음식점 및 주점업,35.1825775,127.881145
밥상,경상남도 하동군 횡천면 경서대로 1150,음식점 및 주점업,35.1091457,127.811242
스토리하우스,"경상남도 하동군 하동읍 중앙1길 5-2,",음식점 및 주점업,35.0702475,127.7477321
청학동한우촌식육식당,경상남도 하동군 청암면 청학로 661,음식점 및 주점업,35.1555657,127.7998101
청암주유소,경상남도 하동군 청암면 청학로 654,소매업; 자동차 제외,35.1553439,127.8007318
오케이빌리지,경상남도 하동군 청암면 청학로 1825-5(오케이빌리),음식점 및 주점업,35.2109292,127.7645346
지리산쉼터,경상남도 하동군 청암면 청학로 2345,음식점 및 주점업,35.2352593,127.7252323
양지가든,경상남도 하동군 청암면 청학로 1011,음식점 및 주점업,35.1683927,127.7714456
카페 브릿지130,경상남도 하동군 화개면 화개로 334,음식점 및 주점업,35.2135847,127.6382487
골목맛집,경상남도 하동군 화개면 원탑2길 26,음식점 및 주점업,35.1876774,127.6251359
소설역마의옥화주막,경상남도 하동군 화개면 원탑1길 4-3,음식점 및 주점업,35.1880812,127.6249994
장터마트,경상남도 하동군 화개면 쌍계로 10,소매업; 자동차 제외,35.1877409,127.6248902
문(MOON),경상남도 하동군 하동읍 중앙로 48-1,음식점 및 주점업,35.0709432,127.7473366
만나맛집,경상남도 하동군 화개면 쌍계로 15,음식점 및 주점업,35.1880103,127.6240814
늘푸른농원,경상남도 하동군 화개면 쌍계로 15,소매업; 자동차 제외,35.1880103,127.6240814
하늘타리농원,경상남도 하동군 화개면 쌍계로 15,소매업; 자동차 제외,35.1880103,127.6240814
화개락,경상남도 하동군 화개면 쌍계로 21,음식점 및 주점업,35.1886236,127.6242244
화개장터 보경이네,경상남도 하동군 화개면 쌍계로 15,소매업; 자동차 제외,35.1880103,127.6240814
화개장터1번가,경상남도 하동군 화개면 쌍계로 15,소매업; 자동차 제외,35.1880103,127.6240814
이조식당,경상남도 하동군 하동읍 중앙로 90,음식점 및 주점업,35.0723882,127.7433994
메가커피 하동점,"경상남도 하동군 하동읍 경서대로 124 ,",음식점 및 주점업,35.0663058,127.7491305
삼거리슈퍼,경상남도 하동군 청암면 청학로 2217,소매업; 자동차 제외,35.2288083,127.7343054
유나소주방,"경상남도 하동군 하동읍 중앙1길 10,",음식점 및 주점업,35.0700153,127.7474466
풍년LPG,경상남도 하동군 하동읍 섬진강대로 2344,소매업; 자동차 제외,35.081329,127.7354077
정과정 농원,경상남도 하동군 하동읍 흥룡길 17,소매업; 자동차 제외,35.1109079,127.6984067
홀츠바우,경상남도 하동군 금남면 경제산업로 48,금속 가공제품 제조업; 기계 및 가구 제외,34.9870515,127.826039
함지박식당,경상남도 하동군 북천면 가리골길 9,음식점 및 주점업,35.1147133,127.8945977
차마당,경상남도 하동군 화개면 상덕길 66,도매 및 상품 중개업,35.1797825,127.6344757
시골집청국장,경상남도 하동군 화개면 쌍계로 15,소매업; 자동차 제외,35.1880103,127.6240814
설송식당,경상남도 하동군 화개면 화개로 6-1,음식점 및 주점업,35.1891819,127.6226315
다웰빙카페,"경상남도 하동군 하동읍 오룡정길 24,",음식점 및 주점업,35.0716721,127.7418525
아름다운산골,경상남도 하동군 화개면 범왕길 196,숙박업,35.2702463,127.6193438
이노티안경원,경상남도 하동군 하동읍 중앙로 29-6,소매업; 자동차 제외,35.0703102,127.7490204
옥종와따요,경상남도 하동군 옥종면 옥종중앙길 49 (제일식당),음식점 및 주점업,35.1797414,127.879576
시골집장가네,경상남도 하동군 악양면 상중대1길 21,식료품 제조업,35.177888,127.7175944
돌팀이식품,경상남도 하동군 하동읍 화심길 306,식료품 제조업,35.090904,127.7205639
대구랑아구랑,경상남도 하동군 진교면 민다리안길 126-1,음식점 및 주점업,35.0249635,127.903811
산이랑바다랑,경상남도 하동군 진교면 민다리길 95 (대성카월드),음식점 및 주점업,35.0301041,127.9016984
휠라인티모 하동점,경상남도 하동군 하동읍 중앙로 45-1,소매업; 자동차 제외,35.0706859,127.7475345
수산시장,"경상남도 하동군 금남면 섬진강대로 977-17,",음식점 및 주점업,34.9959881,127.8094996
하동숯불갈비,경상남도 하동군 하동읍 섬진강대로 2184,음식점 및 주점업,35.0689688,127.7410852
속옷할인마트,경상남도 하동군 하동읍 시장1길 3,소매업; 자동차 제외,35.0703965,127.7488616
미래건재상회,경상남도 하동군 악양면 악양동로 258-1,도매 및 상품 중개업,35.1526276,127.7083193
쌍계도예,경상남도 하동군 화개면 침점2길 33-5,소매업; 자동차 제외,35.2200747,127.63635
알프스 하동밀밭,경상남도 하동군 북천면 경서대로 2021-4,소매업; 자동차 제외,35.1150566,127.8526889
동양FMC,경상남도 하동군 진교면 강변길 59,농업,35.0340899,127.9011492
대나무집식당,"경상남도 하동군 하동읍 경서대로 89-5,",음식점 및 주점업,35.0649705,127.7460273
장모님치킨,경상남도 하동군 악양면 악양동로 379-5,음식점 및 주점업,35.1614788,127.709594
목촌돼지국밥,경상남도 하동군 악양면 악양서로 350,음식점 및 주점업,35.1614245,127.7093903
작은집,"경상남도 하동군 하동읍 경서대로 189,",음식점 및 주점업,35.071119,127.7530242
남천목재,경상남도 하동군 하동읍 군청로 80,도매 및 상품 중개업,35.0630262,127.7558444
장수숯불갈비,경상남도 하동군 진교면 민다리길 84,음식점 및 주점업,35.0291483,127.9026162
렉스학원,경상남도 하동군 옥종면 덕천로 8,교육 서비스업,35.1825626501,127.8798623855
아지매반찬나라,경상남도 하동군 진교면 민다리길 62-6,소매업; 자동차 제외,35.0273787,127.9037903
호식이두마리화개장터점,경상남도 하동군 화개면 화개로 23 (개화식당),음식점 및 주점업,35.1903665,127.6235344
섬진강약국,"경상남도 하동군 하동읍 중앙로 20,",소매업; 자동차 제외,35.0704209,127.7503597
향원슈퍼,경상남도 하동군 화개면 쌍계로 14,소매업; 자동차 제외,35.1881433,127.6248791
(주)명품하동녹차사업단,경상남도 하동군 하동읍 섬진강대로 2571,도매 및 상품 중개업,35.0910479156,127.7136813366
사랑떡방앗간,경상남도 하동군 악양면 악양서로 325-2,식료품 제조업,35.15997,127.7073403
하동국민체육센터,경상남도 하동군 적량면 공설운동장로 207,부동산업,35.0622583,127.7775875
가비원,경상남도 하동군 화개면 화개로 13,소매업; 자동차 제외,35.1898267,127.6230034
가비원모텔,경상남도 하동군 화개면 화개로 13,숙박업,35.1898267,127.6230034
지리산내츄럴팜주식회사,경상남도 하동군 악양면 정서길 141-3,음식점 및 주점업,35.1673466,127.6967926
수림식당,"경상남도 하동군 횡천면 문화2길 24,",음식점 및 주점업,35.1092123,127.8107004
이마트24 R진교터미널점,경상남도 하동군 진교면 진교중앙길 15,소매업; 자동차 제외,35.0288196,127.9031653
더맑은스킨,"경상남도 하동군 하동읍 향교1길 49,",소매업; 자동차 제외,35.0702822,127.7452567
쌍화카페,경상남도 하동군 화개면 쌍계로 564,음식점 및 주점업,35.2297139,127.6438322
우리항공여행사,경상남도 하동군 하동읍 중앙로 28,사업 지원 서비스업,35.0706388,127.749529
하옹,경상남도 하동군 하동읍 섬진강대로 2578,음식점 및 주점업,35.0917882,127.7133446
Y에듀학원,경상남도 하동군 하동읍 시장1길 21,교육 서비스업,35.0688357,127.7491014
하늘수미술학원,"경상남도 하동군 하동읍 시장1길 24,",교육 서비스업,35.0685264,127.7489072
대왕민물장어,경상남도 하동군 적량면 공설운동장로 325,음식점 및 주점업,35.0543439,127.7859467
하동꽃화원,경상남도 하동군 하동읍 경서대로 229,소매업; 자동차 제외,35.0716938,127.7574974
알프스산장,경상남도 하동군 청암면 청학로 2224,음식점 및 주점업,35.2294552,127.7343638
현대식품,경상남도 하동군 하동읍 시장1길 14-4,소매업; 자동차 제외,35.0696957,127.748125
청옥산장,경상남도 하동군 청암면 삼신봉로 62-14,음식점 및 주점업,35.2375709,127.7347519
노량활어,"경상남도 하동군 금남면 노량해안길 15,",음식점 및 주점업,34.9485102,127.8605704
최구제,경상남도 하동군 횡천면 경서대로 1203,음식점 및 주점업,35.1096083,127.8168162
우리,경상남도 하동군 화개면 쌍계로 15,음식점 및 주점업,35.1880103,127.6240814
연우제다,경상남도 하동군 하동읍 밤골길 137-24,도매 및 상품 중개업,35.0888484,127.7462489
하남사무기상사,경상남도 하동군 하동읍 중앙로 61-1,도매 및 상품 중개업,35.0711820655,127.745794482
정관장홍삼하동점,경상남도 하동군 하동읍 중앙로 43,소매업; 자동차 제외,35.0706490247,127.7477973663
정현다원,경상남도 하동군 화개면 쌍계로 21,소매업; 자동차 제외,35.1886236,127.6242244
옥종주유소,경상남도 하동군 옥종면 옥종중앙길 1,소매업; 자동차 제외,35.1753958,127.8800208
옥종돼지국밥,경상남도 하동군 옥종면 옥종중앙길 27,음식점 및 주점업,35.1776561,127.8796545
남덕상회,경상남도 하동군 하동읍 시장1길 18-1,소매업; 자동차 제외,35.0692416,127.7487178
진흥청과,경상남도 하동군 하동읍 시장1길 18,도매 및 상품 중개업,35.0692319,127.7488122
고심통참숯갈비육전선지국,경상남도 하동군 하동읍 시장1길 20,음식점 및 주점업,35.068823,127.7488708
강정식당,경상남도 하동군 옥종면 덕천로 433,음식점 및 주점업,35.2157845,127.8868276
미니갤러리카페두연,경상남도 하동군 하동읍 군청로 24 (하동읍내엘에이치천년나무아파트),음식점 및 주점업,35.0663829,127.7502625
대림오토바이 삼천리자전거,경상남도 하동군 하동읍 경서대로 217,자동차 및 부품 판매업,35.0718325,127.7560537
산과물,경상남도 하동군 화개면 쌍계로 532-6,음식점 및 주점업,35.226522,127.6443695
구재봉 자연휴양림,경상남도 하동군 적량면 중서길 60-81,부동산업,35.1289579,127.7440937
명품시계하동점,경상남도 하동군 횡천면 경서대로 1203,소매업; 자동차 제외,35.1096083,127.8168162
터미널매점,경상남도 하동군 하동읍 너뱅이길 35,소매업; 자동차 제외,35.0642126,127.7605978
메디팜행복약국,"경상남도 하동군 하동읍 중앙로 15,",소매업; 자동차 제외,35.0701547,127.7508472
새진교장례식장,경상남도 하동군 진교면 경충로 1155,기타 개인 서비스업,35.0369911,127.9040806
다담디자인,경상남도 하동군 하동읍 경서대로 126,인쇄 및 기록매체 복제업,35.0664277,127.7491635
하동반점,경상남도 하동군 하동읍 시장1길 30,음식점 및 주점업,35.0681139,127.7490275
산약초산장,경상남도 하동군 청암면 청학로 2517,음식점 및 주점업,35.2416061,127.7105926
백월예술학당,경상남도 하동군 청암면 대밭땀길 30-35,교육 서비스업,35.2406875,127.7224855
민주엄마,경상남도 하동군 화개면 쌍계로 15,소매업; 자동차 제외,35.1880103,127.6240814
빠하디,경상남도 하동군 악양면 정동상신길 129-6,숙박업,35.1736436,127.7060407
대청마루,경상남도 하동군 화개면 쌍계로 17,음식점 및 주점업,35.1880873,127.6238522
진리커피,경남 하동군 하동읍 중앙로 11,음식점 및 주점업,35.070283,127.7511916
청담헤어,"경상남도 하동군 하동읍 중앙로 20,",기타 개인 서비스업,35.0704209,127.7503597
경남하동 셀렉토,경상남도 하동군 하동읍 경서대로 150-1,음식점 및 주점업,35.0684082,127.750278
티스토리하동,경상남도 하동군 화개면 쌍계로 230,음식점 및 주점업,35.2042748,127.6342283
다온노인재가복지센터,경상남도 하동군 옥종면 옥종중앙길 86-56,사회복지 서비스업,35.1833428,127.8808026
(주)스타웨이하동,경상남도 하동군 악양면 섬진강대로 3358-110,음식점 및 주점업,35.1492351,127.680459
왕가네족발,경상남도 하동군 진교면 민다리길 62-4,음식점 및 주점업,35.0273292,127.9036655
한수한우직판점,경상남도 하동군 하동읍 시장1길 16,소매업; 자동차 제외,35.0693998,127.7487765
대성미곡상회,경상남도 하동군 하동읍 시장1길 8,소매업; 자동차 제외,35.0700921,127.7486329
덕성떡방앗간,경상남도 하동군 하동읍 시장1길 14-1,식료품 제조업,35.0695414,127.7486531
유지미용실,경상남도 하동군 하동읍 시장1길 18-2,기타 개인 서비스업,35.0692576,127.7484963
새계란상회,경상남도 하동군 하동읍 시장1길 14-4,소매업; 자동차 제외,35.0696957,127.748125
대구참기름,경상남도 하동군 하동읍 시장1길 20-4,식료품 제조업,35.0693019,127.7480405
갑을상회,경상남도 하동군 하동읍 시장1길 9-5,소매업; 자동차 제외,35.0698643,127.749002
명신수산,경상남도 하동군 하동읍 시장1길 14-9,소매업; 자동차 제외,35.0695775,127.7482858
수인학원,경상남도 하동군 진교면 민다리길 127,교육 서비스업,35.0327324299,127.9004971371
수인학원,경상남도 하동군 진교면 민다리길 127,교육 서비스업,35.0327347,127.9004766
이모션,경상남도 하동군 화개면 정금대비길 25-7,숙박업,35.210891,127.6425649
고호미술학원,경상남도 하동군 진교면 산복벚꽃길 2,교육 서비스업,35.0329036,127.9002515
파리바게뜨,경상남도 하동군 하동읍 중앙로 49-1,음식점 및 주점업,35.0707867,127.7470133
가람채,경상남도 하동군 하동읍 섬진강대로 1880,음식점 및 주점업,35.0593845,127.7665418
엔젤피아노학원,경상남도 하동군 진교면 민다리길 127,교육 서비스업,35.0327347,127.9004766
무량원,경상남도 하동군 하동읍 섬진강대로 2770,음식점 및 주점업,35.1053085,127.7014768
키친나라,경상남도 하동군 하동읍 시장1길 15,도매 및 상품 중개업,35.0693252,127.7490645
조광식당,경상남도 하동군 하동읍 시장1길 18,음식점 및 주점업,35.0692319,127.7488122
섬진강주유소,경상남도 하동군 화개면 섬진강대로 3911,소매업; 자동차 제외,35.1789629,127.6312532
빅마트,경상남도 하동군 악양면 악양동로 354,소매업; 자동차 제외,35.1606488,127.7122174
정량주유소,경상남도 하동군 적량면 경서대로 628,소매업; 자동차 제외,35.0742495,127.7890482
전원농약종묘사,경상남도 하동군 옥종면 원해길 1,도매 및 상품 중개업,35.1854644877,127.8827059711
삼화 에코하우스,경상남도 하동군 적량면 동촌길 21-2,부동산업,35.1195813116,127.7702661728
김미영헤어샵,경상남도 하동군 진교면 진교중앙길 21,기타 개인 서비스업,35.0286222,127.9025151
우정갈비탕,경상남도 하동군 악양면 악양동로 47,음식점 및 주점업,35.1366138,127.6969196
누리녹즙,경상남도 하동군 금성면 금성로 90,도매 및 상품 중개업,34.9722771,127.7927834
이화가든,경상남도 하동군 하동읍 섬진강대로 2507,음식점 및 주점업,35.0876444,127.7196273
시장통국밥,경상남도 하동군 하동읍 시장2길 8,음식점 및 주점업,35.0696734,127.7494542
송기원 진주냉면 진교점,경상남도 하동군 진교면 민다리안길 13,음식점 및 주점업,35.0338624,127.9038198
고은인테리어,경상남도 하동군 하동읍 해량길 19-1,전문직별 공사업,35.0739763,127.7426569
카페포레,경상남도 하동군 하동읍 산복1길 5,음식점 및 주점업,35.07843,127.7401219
봉구스 밥버거,경상남도 하동군 하동읍 송림1길 1,음식점 및 주점업,35.064996,127.7484553
작은포차,경상남도 하동군 하동읍 중앙로 49,음식점 및 주점업,35.07071,127.7470336
웰빙 삼계탕 쌀국수,경상남도 하동군 하동읍 향교1길 13,음식점 및 주점업,35.0682777,127.7482942
신흥라사,경상남도 하동군 하동읍 시장1길 27 (하동읍),기타 개인 서비스업,35.0681525443,127.7492465002
맘스터치,경상남도 하동군 하동읍 시장1길 25 (하동읍),음식점 및 주점업,35.0685171,127.7492846
유로제다,경상남도 하동군 화개면 신촌도심길 43-7,식료품 제조업,35.218632,127.6464482
하동포구팔십리,경상남도 하동군 하동읍 섬진강대로 2222,음식점 및 주점업,35.0723073,127.7410911
어묵나라,경상남도 하동군 하동읍 시장1길 19,음식점 및 주점업,35.0690836,127.749084
양보주유소,경상남도 하동군 양보면 경서대로 1466,소매업; 자동차 제외,35.092423,127.8248433
싱싱횟집,경상남도 하동군 옥종면 주포중앙길 38-1,음식점 및 주점업,35.1804989,127.8801559
지리산팔베개,경상남도 하동군 화개면 쌍계로 129,숙박업,35.1963963,127.6314918
범바구집,경상남도 하동군 하동읍 범바위길 1,음식점 및 주점업,35.1038092,127.7018836
송림스크린골프연습장,경상남도 하동군 하동읍 산복1길 36-14,스포츠 및 오락관련 서비스업,35.0778432,127.7404447
프로스펙스하동대리점,경상남도 하동군 하동읍 중앙로 27,소매업; 자동차 제외,35.0703171,127.7495013
하동주유소,경상남도 하동군 하동읍 섬진강대로 2128,소매업; 자동차 제외,35.0647985,127.7421523
대가,경상남도 하동군 하동읍 중앙3길 6-4,음식점 및 주점업,35.0707613,127.7460229
통파이브,경상남도 하동군 악양면 악양서로 326,음식점 및 주점업,35.1596821,127.707491
마시촌,경상남도 하동군 하동읍 경서대로 102,음식점 및 주점업,35.064793,127.7477682
진교스크린골프,경상남도 하동군 진교면 경충로 1119,스포츠 및 오락관련 서비스업,35.0330446,127.9040331
㈜삼성디지털프라자하동점,경상남도 하동군 하동읍 하마길 45-1,도매 및 상품 중개업,35.0708658,127.7520386
이화 모터스,경상남도 하동군 적량면 황금길 3,자동차 및 트레일러 제조업,35.07918233,127.7816175637
하동자동차종합상사,경상남도 하동군 적량면 황금길 3,개인 및 소비용품 수리업,35.07918233,127.7816175637
힐링카페,경상남도 하동군 옥종면 옥종중앙길 76,음식점 및 주점업,35.1821162,127.8794446
황실미용실,경상남도 하동군 진교면 민다리길 81-1,기타 개인 서비스업,35.0289425,127.9023312
섬진강한우,경상남도 하동군 화개면 화개로 13-1,소매업; 자동차 제외,35.1898634,127.6230963
에또식당,경상남도 하동군 하동읍 중앙로 49,음식점 및 주점업,35.07071,127.7470336
머리하자 미용실,경상남도 하동군 진교면 민다리안길 116,기타 개인 서비스업,35.0257589599,127.9033558926
하동식육식당,경상남도 하동군 옥종면 옥종시장길 8-1,음식점 및 주점업,35.1819219,127.8801237
진교이불점,경상남도 하동군 진교면 선창길 24,소매업; 자동차 제외,35.0271737,127.903816
진교죽집,경상남도 하동군 진교면 선창길 24,음식점 및 주점업,35.0271737,127.903816
착한구이식육,경상남도 하동군 진교면 강변길 29,소매업; 자동차 제외,35.031735,127.9032405
착한구이 식육식당,경상남도 하동군 진교면 강변길 29,음식점 및 주점업,35.031735,127.9032405
재규상회,경상남도 하동군 진교면 선창길 24,소매업; 자동차 제외,35.0271737,127.903816
수네일,경상남도 하동군 하동읍 경서대로 174,기타 개인 서비스업,35.0700994,127.7518492
채소나라,경상남도 하동군 하동읍 시장1길 18,소매업; 자동차 제외,35.0692319,127.7488122
장터우리옷,경상남도 하동군 화개면 쌍계로 17,식료품 제조업,35.1880873,127.6238522
옥산가스,경상남도 하동군 옥종면 옥수로 16-31,소매업; 자동차 제외,35.1777521,127.8848888
삼태다원,경상남도 하동군 화개면 침점2길 29,식료품 제조업,35.2195904,127.6369925
하동나들목주유소,경상남도 하동군 금남면 섬진강대로 929,소매업; 자동차 제외,34.9951125,127.8138063
스마일카페,경상남도 하동군 화개면 쌍계로 17,음식점 및 주점업,35.1880873,127.6238522
엔제리너스 경남 하동점,경상남도 하동군 하동읍 중앙로 12,음식점 및 주점업,35.0706574,127.751141
지리산하늘농원,경상남도 하동군 화개면 목통길 77,식료품 제조업,35.2741389,127.6131948
준휘스포츠,경상남도 하동군 하동읍 경서대로 157,도매 및 상품 중개업,35.0691439,127.750297
동흥재첩국,경상남도 하동군 하동읍 경서대로 94-1,음식점 및 주점업,35.0645301,127.7468532
목통산장,경상남도 하동군 화개면 목통길 86-3,음식점 및 주점업,35.274784,127.6136883
다기야하동점,경상남도 하동군 하동읍 중앙로 51-2,음식점 및 주점업,35.0707891,127.7468084
청호식당,경상남도 하동군 화개면 범왕길 233,음식점 및 주점업,35.2725487,127.6186499
좋은세상식당,경상남도 하동군 화개면 차시배지길 23,음식점 및 주점업,35.230291,127.6450387
신흥식당,경상남도 하동군 화개면 석문길 16,음식점 및 주점업,35.2305977,127.6442454
진야식,경상남도 하동군 하동읍 중앙로 29-3 (하동읍),음식점 및 주점업,35.070316,127.7493149
THE BEST헤어,경상남도 하동군 하동읍 시장1길 3,기타 개인 서비스업,35.0703965,127.7488616
진교반점,경상남도 하동군 진교면 진교중앙길 24,음식점 및 주점업,35.0288690625,127.902346938
진교반점,"경상남도 하동군 진교면 진교중앙길 24 (진교면, 진교반점)",음식점 및 주점업,35.028869,127.9023472
하동한우촌,경상남도 하동군 금남면 영천안길 5 (금남면),소매업; 자동차 제외,34.9971884,127.8075991
보라식당,경상남도 하동군 하동읍 중앙2길 6-1,음식점 및 주점업,35.0703106,127.7472317
청하식당,경상남도 하동군 하동읍 시장1길 20-1,음식점 및 주점업,35.0688062,127.7485779
서희길상,경상남도 하동군 악양면 평사리길 45,소매업; 자동차 제외,35.1533839,127.6891739
처갓집 양념치킨 하동점,경상남도 하동군 하동읍 중앙2길 10-4,음식점 및 주점업,35.0701255,127.7469413
영남상회,경상남도 하동군 하동읍 시장1길 20-3,소매업; 자동차 제외,35.0691809,127.7481647
비너스 하동점,경상남도 하동군 하동읍 중앙로 33,소매업; 자동차 제외,35.0705141,127.7488276
패스타임,경상남도 하동군 하동읍 중앙로 41,소매업; 자동차 제외,35.070601,127.7480828
박가국밥&갈비,경상남도 하동군 화개면 쌍계로 330,음식점 및 주점업,35.2104087,127.6405005
산호식당,경상남도 하동군 화개면 화개로 291,음식점 및 주점업,35.2100243,127.6380047
코보네맛집,경상남도 하동군 화개면 석문길 7,음식점 및 주점업,35.2310059,127.6436124
부산식당,경상남도 하동군 화개면 석문길 2,음식점 및 주점업,35.2303862,127.6438577
장인정신,경상남도 하동군 하동읍 중앙로 111,자동차 및 부품 판매업,35.0735299,127.741036
국제교류재단  하동군청,경상남도 하동군 하동읍 군청로 23,"공공 행정, 국방 및 사회보장 행정",35.067333,127.751275
구정체험농장,경상남도 하동군 양보면 원양신촌길 22-5,농업,35.0994813,127.82519
새맛집,경상남도 하동군 금성면 금성중앙길 66,음식점 및 주점업,34.9664426,127.7998466
진교사우나,경상남도 하동군 진교면 산복벚꽃길 5,기타 개인 서비스업,35.0325959,127.9001374
블루문스토리,경상남도 하동군 금남면 태봉길 18-1,소매업; 자동차 제외,34.9678245,127.8542658
카페 오라,경상남도 하동군 하동읍 중앙로 45-1,음식점 및 주점업,35.0706859,127.7475345
송림셀프세차장,경상남도 하동군 하동읍 오룡정길 30-3,개인 및 소비용품 수리업,35.0723809667,127.7425301034
말하는대로,경상남도 하동군 하동읍 경서대로 222-1,창고 및 운송관련 서비스업,35.071438,127.7566115
루트커피,경상남도 하동군 하동읍 중앙1길 11,식료품 제조업,35.0697813,127.7475531
아구찜전문,경상남도 하동군 화개면 쌍계로 188-1,음식점 및 주점업,35.2008618,127.6341311
대원기계공구,경상남도 하동군 하동읍 경서대로 187,도매 및 상품 중개업,35.0711807528,127.7528780993
전도스크린골프,경상남도 하동군 금남면 사궁길 20,스포츠 및 오락관련 서비스업,34.9975501,127.8118391
대구막창,경상남도 하동군 하동읍 중앙2길 3,음식점 및 주점업,35.0705449,127.7474887
원조강변할매제첩식당,경상남도 하동군 고전면 재첩길286-1,음식점 및 주점업,35.0072752,127.7869965
동방재첩식당,경상남도 하동군 고전면 재첩길280,음식점 및 주점업,35.0066477,127.7869788
전도 낙지랑 오라랑,경상남도 하동군 금남면 섬진강대로 971,음식점 및 주점업,34.9966837,127.8092495
명성식당,경상남도 하동군 하동읍 중앙로 8,음식점 및 주점업,35.0707473,127.7516704
온달맛집,경상남도 하동군 진교면 선창길 17,음식점 및 주점업,35.0259265,127.9052285
청목공예,경상남도 하동군 화개면 백혜길 192,소매업; 자동차 제외,35.2009221024,127.6494172332
섬진강고향집식품,경상남도 하동군 횡천면 경서대로 996,식료품 제조업,35.1006141,127.801754
따뜻한 11월 영수학원,경상남도 하동군 하동읍 경서대로 110,교육 서비스업,35.0651065,127.7484728
꽃피는 산골,경상남도 하동군 화개면 화개로 146,음식점 및 주점업,35.2004655,127.6304544
대영기계상사,경상남도 하동군 금남면 구노량길 55,산업용 기계 및 장비 수리업,34.9493178,127.8782287
바카스하우스,경상남도 하동군 하동읍 경서대로 126,소매업; 자동차 제외,35.0664277,127.7491635
용궁성횟집,경상남도 하동군 금남면 노량해안길 171,음식점 및 주점업,34.9474589,127.8738627
조아모텔,경상남도 하동군 금남면 섬진강대로 567,숙박업,34.9799339,127.8376603
태공횟집,경상남도 하동군 금남면 노량해안길 35,음식점 및 주점업,34.9481559,127.862612
모암식당,경상남도 하동군 화개면 화개로 737,음식점 및 주점업,35.2483823,127.6411303
차사랑 정비센터,경상남도 하동군 화개면 쌍계로 104,개인 및 소비용품 수리업,35.1950603,127.6292955
"백운여관,단야식당",경상남도 하동군 화개면 석문길 2,숙박업,35.2303862,127.6438577
LG전자하동판매점,경상남도 하동군 하동읍 중앙로 47-1,소매업; 자동차 제외,35.0706713,127.7472362
회영루,경상남도 하동군 하동읍 중앙로 52,음식점 및 주점업,35.0709912,127.7471028
착한반찬,경상남도 하동군 하동읍 시장2길 7,소매업; 자동차 제외,35.0698573,127.7493979
우리네식품,경상남도 하동군 옥종면 한계길 86,도매 및 상품 중개업,35.1707424,127.908061
그린볼링센타,경상남도 하동군 금남면 사궁길 11,스포츠 및 오락관련 서비스업,34.9972763,127.8108288
해안가횟집,경상남도 하동군 금남면 노량해안길 223,음식점 및 주점업,34.9490156,127.8786454
진희횟집,경상남도 하동군 금남면 노량해안길 3,음식점 및 주점업,34.9487798,127.8597777
서울식당,경상남도 하동군 금남면 노량해안길 7-1,음식점 및 주점업,34.9485309,127.8597876
한일여관,경상남도 하동군 금남면 노량해안길 5,숙박업,34.9486821,127.859747
황금당구장,경상남도 하동군 금남면 제먼당길 135-1,스포츠 및 오락관련 서비스업,34.9489454,127.8637594
노량식당,경상남도 하동군 금남면 제먼당길 106,음식점 및 주점업,34.9487064,127.8603676
제일낚시휴게실,경상남도 하동군 금남면 경충로 451,기타 제품 제조업,34.9794306,127.8945938
큰바다횟집,경상남도 하동군 금남면 노량해안길 155,음식점 및 주점업,34.9467131,127.8726067
화개장터미정이네,경상남도 하동군 화개면 쌍계로 15,소매업; 자동차 제외,35.1880103,127.6240814
미청식당,경상남도 하동군 하동읍 시장1길 26-35,음식점 및 주점업,35.0693321,127.7476415
하동현대의원,경상남도 하동군 하동읍 중앙로 15,보건업,35.0701547,127.7508472
가마치통닭,경상남도 하동군 진교면 민다리길 54 (진교식육식당),음식점 및 주점업,35.0266714,127.9038351
쉬어가기좋은날,경상남도 하동군 화개면 쌍계사길 6,음식점 및 주점업,35.2301572,127.6443522
썬쥬얼리,경상남도 하동군 하동읍 시장1길 2,소매업; 자동차 제외,35.0704977,127.7485095
연지공방,경상남도 하동군 악양면 매계1길 23-6,소매업; 자동차 제외,35.1838224,127.7095024
아모레 카운셀러_김점*,"경상남도 하동군 하동읍 중앙로 12, 2층 (하동시외버스터미널)",소매업; 자동차 제외,35.0706574,127.751141
아모레 카운셀러_김영*,"경상남도 하동군 하동읍 중앙로 12, 2층 (하동시외버스터미널)",소매업; 자동차 제외,35.0706574,127.751141
아모레 카운셀러_지미*,"경상남도 하동군 하동읍 중앙로 12, 2층 (하동시외버스터미널)",소매업; 자동차 제외,35.0706574,127.751141
아모레 카운셀러_송영*,"경상남도 하동군 하동읍 중앙로 12, 2층 (하동시외버스터미널)",소매업; 자동차 제외,35.0706574,127.751141
아모레 카운셀러_오말*,"경상남도 하동군 하동읍 중앙로 12, 2층 (하동시외버스터미널)",소매업; 자동차 제외,35.0706574,127.751141
아모레 카운셀러_손희*,"경상남도 하동군 하동읍 중앙로 12, 2층 (하동시외버스터미널)",소매업; 자동차 제외,35.0706574,127.751141
아모레 카운셀러_정미*,"경상남도 하동군 하동읍 중앙로 12, 2층 (하동시외버스터미널)",소매업; 자동차 제외,35.0706574,127.751141
아모레 카운셀러_정계*,"경상남도 하동군 하동읍 중앙로 12, 2층 (하동시외버스터미널)",소매업; 자동차 제외,35.0706574,127.751141
아모레 카운셀러_강진*,"경상남도 하동군 하동읍 중앙로 12, 2층 (하동시외버스터미널)",소매업; 자동차 제외,35.0706574,127.751141
아모레 카운셀러_안정*,"경상남도 하동군 하동읍 중앙로 12, 2층 (하동시외버스터미널)",소매업; 자동차 제외,35.0706574,127.751141
아모레 카운셀러_정금*,"경상남도 하동군 하동읍 중앙로 12, 2층 (하동시외버스터미널)",소매업; 자동차 제외,35.0706574,127.751141
아모레 카운셀러_안순*,"경상남도 하동군 하동읍 중앙로 12, 2층 (하동시외버스터미널)",소매업; 자동차 제외,35.0706574,127.751141
아모레 카운셀러_이순*,"경상남도 하동군 하동읍 중앙로 12, 2층 (하동시외버스터미널)",소매업; 자동차 제외,35.0706574,127.751141
아모레 카운셀러_김현*,"경상남도 하동군 하동읍 중앙로 12, 2층 (하동시외버스터미널)",소매업; 자동차 제외,35.0706574,127.751141
아모레 카운셀러_이태*,"경상남도 하동군 하동읍 중앙로 12, 2층 (하동시외버스터미널)",소매업; 자동차 제외,35.0706574,127.751141
아모레 카운셀러_설은*,"경상남도 하동군 하동읍 중앙로 12, 2층 (하동시외버스터미널)",소매업; 자동차 제외,35.0706574,127.751141
아모레 카운셀러_김명*,"경상남도 하동군 하동읍 중앙로 12, 2층 (하동시외버스터미널)",소매업; 자동차 제외,35.0706574,127.751141
아모레 카운셀러_양명*,"경상남도 하동군 하동읍 중앙로 12, 2층 (하동시외버스터미널)",소매업; 자동차 제외,35.0706574,127.751141
아모레 카운셀러_임영*,"경상남도 하동군 하동읍 중앙로 12, 2층 (하동시외버스터미널)",소매업; 자동차 제외,35.0706574,127.751141
아모레 카운셀러_장태*,"경상남도 하동군 하동읍 중앙로 12, 2층 (하동시외버스터미널)",소매업; 자동차 제외,35.0706574,127.751141
아모레 카운셀러_임인*,"경상남도 하동군 하동읍 중앙로 12, 2층 (하동시외버스터미널)",소매업; 자동차 제외,35.0706574,127.751141
참봉칼국수,경상남도 하동군 하동읍 너뱅이길 35,음식점 및 주점업,35.0642126,127.7605978
참치대가 LEE,경상남도 하동군 하동읍 시장3길 4-1,음식점 및 주점업,35.0694604,127.7496527
머리풍경,경상남도 하동군 하동읍 시장1길 20-1,기타 개인 서비스업,35.0688062,127.7485779
김병수가정의학과의원,경상남도 하동군 하동읍 중앙로 17,보건업,35.0702032,127.7506494
사랑공부방,경상남도 하동군 진교면 산복벚꽃길 8,교육 서비스업,35.0328061392,127.8997951942
봄마중영농조합법인,경상남도 하동군 화개면 화개로 1405-8,소매업; 자동차 제외,35.287276,127.6483569
세월관리,경상남도 하동군 하동읍 중앙로 24,기타 개인 서비스업,35.0704308,127.7501059
현대신발,경상남도 하동군 하동읍 시장1길 14-4,소매업; 자동차 제외,35.0696957,127.748125
천일지업사,경상남도 하동군 하동읍 중앙로 30,기타 개인 서비스업,35.0706203,127.7493779
법무사류재윤사무소,경상남도 하동군 하동읍 시장1길 18-4,기타 개인 서비스업,35.0691534,127.7487383
섬마을해물칼국수,경상남도 하동군 진교면 선창길 24,음식점 및 주점업,35.0271737,127.903816
